school_name,city,state,zip_code,latitude,longitude,endowment_begin,endowment_end,endowment_diff
University of Alabama at Birmingham,Birmingham,AL,35294-0110,33.505697,-86.799345,711616804,673320170,-38296634
Amridge University,Montgomery,AL,36117-3553,32.362609,-86.17401,174817,174819,2
University of Alabama in Huntsville,Huntsville,AL,35899,34.724557,-86.640449,100321016,87756960,-12564056
Alabama State University,Montgomery,AL,36104-0271,32.364317,-86.295677,130589167,108202146,-22387021
The University of Alabama,Tuscaloosa,AL,35487-0100,33.211875,-87.545978,1237611651,1144632976,-92978675
Central Alabama Community College,Alexander City,AL,35010,32.92478,-85.945266,146977,144975,-2002
Athens State University,Athens,AL,35611,34.806793,-86.964698,5701551,4982337,-719214
Auburn University at Montgomery,Montgomery,AL,36117-3596,32.36736,-86.177544,64217660,57070175,-7147485
Auburn University,Auburn,AL,36849,32.599378,-85.488258,993955140,911152148,-82802992
Birmingham-Southern College,Birmingham,AL,35254,33.513774,-86.850552,53984787,50831353,-3153434
Chattahoochee Valley Community College,Phenix City,AL,36869,32.42391,-85.031485,49698,49698,0
Enterprise State Community College,Enterprise,AL,36330-1300,31.297496,-85.836956,17221,17239,18
Faulkner University,Montgomery,AL,36109-3390,32.384181,-86.21641,21332492,20765130,-567362
Gadsden State Community College,Gadsden,AL,35903,33.994001,-85.991438,4191039,3461273,-729766
George C Wallace Community College-Dothan,Dothan,AL,36303-9234,31.315274,-85.465836,162756,160538,-2218
Huntingdon College,Montgomery,AL,36106-2148,32.351034,-86.284366,60206711,57163022,-3043689
Heritage Christian University,Florence,AL,35630-9977,34.856153,-87.663051,15150265,14385884,-764381
Jacksonville State University,Jacksonville,AL,36265,33.822938,-85.765321,15173146,14258774,-914372
Jefferson State Community College,Birmingham,AL,35215-3098,33.652535,-86.707233,1384755,1360645,-24110
John C Calhoun State Community College,Tanner,AL,35671,34.645844,-86.949674,9059221,7340517,-1718704
Lawson State Community College,Birmingham,AL,35221-1717,33.450814,-86.888844,586400,599017,12617
University of West Alabama,Livingston,AL,35470,32.588132,-88.186329,428978,428997,19
Marion Military Institute,Marion,AL,36756-3207,32.623734,-87.322041,6303812,6613163,309351
Miles College,Fairfield,AL,35064-2621,33.482442,-86.908751,29292887,25642204,-3650683
University of Mobile,Mobile,AL,36613-2842,30.793247,-88.128934,20155794,22082866,1927072
University of Montevallo,Montevallo,AL,35115-6000,33.10625,-86.865099,31054586,35286697,4232111
Northwest-Shoals Community College,Muscle Shoals,AL,35661,34.739788,-87.678089,1894123,1967313,73190
University of North Alabama,Florence,AL,35632-0001,34.80731,-87.680407,50431808,46153732,-4278076
Oakwood University,Huntsville,AL,35896,34.756344,-86.652705,26286780,19810091,-6476689
Bishop State Community College,Mobile,AL,36603-5898,30.693972,-88.056982,151880,151105,-775
Samford University,Birmingham,AL,35229-2240,33.464128,-86.791799,368437572,426345689,57908117
Selma University,Selma,AL,36701,32.420387,-87.032392,142412,142412,0
Snead State Community College,Boaz,AL,35957-0734,34.201495,-86.169897,2659199,2516549,-142650
University of South Alabama,Mobile,AL,36688-0002,30.696033,-88.178711,548311000,466054000,-82257000
Spring Hill College,Mobile,AL,36608-1791,30.694751,-88.138199,22433426,16618358,-5815068
Stillman College,Tuscaloosa,AL,35401,33.200006,-87.585278,22181481,19839522,-2341959
Talladega College,Talladega,AL,35160,33.433472,-86.112704,2986504,2986503,-1
Troy University,Troy,AL,36082-0001,31.799583,-85.95802,192154272,163701443,-28452829
Tuskegee University,Tuskegee,AL,36088-1920,32.4309,-85.708492,154987957,142900904,-12087053
United States Sports Academy,Daphne,AL,36526-7055,30.639329,-87.91163,1000000,1000000,0
Bevill State Community College,Jasper,AL,35501,33.836929,-87.266406,327960,325011,-2949
University of Alaska Anchorage,Anchorage,AK,99508,61.190163,-149.82619,94750814,88768224,-5982590
Alaska Bible College,Palmer,AK,99645,61.598553,-149.111972,111585,1777619,1666034
University of Alaska Fairbanks,Fairbanks,AK,99775,64.85756,-147.823146,149101934,142226396,-6875538
University of Alaska Southeast,Juneau,AK,99801-8697,58.384846,-134.638255,9107284,9130228,22944
Alaska Pacific University,Anchorage,AK,99508,61.190968,-149.804168,95533737,89661298,-5872439
Arizona State University Campus Immersion,Tempe,AZ,85287,33.417721,-111.934383,1035665824,1142817960,107152136
Arizona Western College,Yuma,AZ,85365-8834,32.689306,-114.495968,4689298,4127898,-561400
University of Arizona,Tucson,AZ,85721-0066,32.232672,-110.950815,1265827492,1203998436,-61829056
Central Arizona College,Coolidge,AZ,85128-9030,32.957092,-111.652501,6553392,6211444,-341948
Cochise County Community College District,Sierra Vista,AZ,85635-2317,31.564597,-110.246946,17529177,20901478,3372301
Eastern Arizona College,Thatcher,AZ,85552-0769,32.843664,-109.76234,10479376,8773460,-1705916
Embry-Riddle Aeronautical University-Prescott,Prescott,AZ,86301-3720,34.616766,-112.449741,73862000,69342000,-4520000
The School of Architecture,Paradise Valley,AZ,85253,33.566649,-111.941953,290521,236751,-53770
Mohave Community College,Kingman,AZ,86409-1238,35.270996,-114.029838,4416894,5247432,830538
Dine College,Tsaile,AZ,86556,36.293328,-109.21684,9865035,7228310,-2636725
Northern Arizona University,Flagstaff,AZ,86011-4092,35.188449,-111.653724,272227419,231491268,-40736151
Northland Pioneer College,Holbrook,AZ,86025-0610,34.93031,-110.142199,12414,12414,0
Pima Community College,Tucson,AZ,85709-1275,32.222125,-110.886659,7997718,6820779,-1176939
Prescott College,Prescott,AZ,86301,34.5452,-112.477185,2417535,2158441,-259094
Arizona Christian University,Glendale,AZ,85306-3216,33.622952,-112.181776,576455,419892,-156563
Yavapai College,Prescott,AZ,86301,34.547495,-112.453395,19046422,16353389,-2693033
University of Arkansas at Little Rock,Little Rock,AR,72204,34.723254,-92.339778,173419237,159965311,-13453926
University of Arkansas for Medical Sciences,Little Rock,AR,72205-7199,34.750152,-92.322348,458810000,348414506,-110395494
Lyon College,Batesville,AR,72501,35.777619,-91.625354,108524843,94590500,-13934343
University of Arkansas,Fayetteville,AR,72701,36.070009,-94.176981,1682003955,1465736201,-216267754
University of Arkansas at Pine Bluff,Pine Bluff,AR,71601,34.244031,-92.018683,8144917,7385811,-759106
Arkansas State University-Beebe,Beebe,AR,72012-1000,35.074176,-91.895351,912212,773899,-138313
Arkansas State University,Jonesboro,AR,72401,35.842388,-90.679988,103761286,88808323,-14952963
Arkansas Tech University,Russellville,AR,72801-2222,35.293237,-93.13562,63150376,62417057,-733319
University of Arkansas at Monticello,Monticello,AR,71656,33.590909,-91.811153,5005755,4562615,-443140
Baptist Health College Little Rock,Little Rock,AR,72210-2827,34.713115,-92.40692,8671842,8880040,208198
Black River Technical College,Pocahontas,AR,72455,36.239793,-90.951033,143095,143095,0
University of Central Arkansas,Conway,AR,72035-0001,35.077945,-92.457672,56022534,52440586,-3581948
Central Baptist College,Conway,AR,72034,35.083838,-92.445021,4425483,3818793,-606690
Cossatot Community College of the University of Arkansas,De Queen,AR,71832,34.043389,-94.3673,83461,100127,16666
Crowley's Ridge College,Paragould,AR,72450,36.064845,-90.584395,1536149,1601349,65200
East Arkansas Community College,Forrest City,AR,72335-2204,35.041655,-90.767726,328631,328315,-316
National Park College,Hot Springs,AR,71913,34.512687,-93.119248,1531826,1640823,108997
Harding University,Searcy,AR,72149-5615,35.247386,-91.726143,215620486,219637477,4016991
Henderson State University,Arkadelphia,AR,71999-0001,34.128155,-93.059703,26733633,24967380,-1766253
Hendrix College,Conway,AR,72032-3080,35.101565,-92.443256,239600607,219548953,-20051654
John Brown University,Siloam Springs,AR,72761,36.189812,-94.560283,168713795,154690175,-14023620
Arkansas State University Mid-South,West Memphis,AR,72301-3829,35.145736,-90.22285,3280032,2938445,-341587
Arkansas Northeastern College,Blytheville,AR,72316-1109,35.898597,-89.921005,3734007,3743684,9677
North Arkansas College,Harrison,AR,72601-5508,36.219909,-93.08844,6083311,5988544,-94767
Ouachita Baptist University,Arkadelphia,AR,71998-0001,34.126093,-93.052471,145465427,137304252,-8161175
Ozarka College,Melbourne,AR,72556-0010,36.053031,-91.896355,2680306,2439130,-241176
University of the Ozarks,Clarksville,AR,72830,35.476278,-93.467221,135708990,126791516,-8917474
University of Arkansas Community College-Morrilton,Morrilton,AR,72110,35.172136,-92.728507,369495,356307,-13188
Philander Smith College,Little Rock,AR,72202-3799,34.737131,-92.283015,14618867,14988232,369365
Southeast Arkansas College,Pine Bluff,AR,71603,34.210309,-92.025936,592298,593206,908
University of Arkansas-Pulaski Technical College,North Little Rock,AR,72118-3347,34.782783,-92.299184,4931591,6143025,1211434
University of Arkansas Hope-Texarkana,Hope,AR,71801,33.641665,-93.596762,2967742,3072447,104705
University of Arkansas Community College Rich Mountain,Mena,AR,71953,34.591449,-94.219799,4537479,4093445,-444034
Williams Baptist University,Walnut Ridge,AR,72476,36.125676,-90.940277,14246058,12875667,-1370391
South Arkansas Community College,El Dorado,AR,71731-7010,33.209446,-92.666087,5249578,3982965,-1266613
Southern Arkansas University Main Campus,Magnolia,AR,71753,33.291618,-93.235922,56871295,62613250,5741955
Southern Arkansas University Tech,Camden,AR,71701-1906,33.628367,-92.721629,1239583,1151663,-87920
University of Arkansas-Fort Smith,Fort Smith,AR,72913-3649,35.384184,-94.373729,119812719,104427695,-15385024
Allan Hancock College,Santa Maria,CA,93454-6399,34.943716,-120.421144,33966809,16058788,-17908021
American Academy of Dramatic Arts-Los Angeles,Los Angeles,CA,90028,34.095378,-118.343701,1141829,1141829,0
Berkeley School of Theology,Berkeley,CA,94704-3029,37.865252,-122.256149,8640521,8750042,109521
American Film Institute Conservatory,Los Angeles,CA,90027-1625,34.10767,-118.310018,24822143,22090718,-2731425
Antelope Valley Community College District,Lancaster,CA,93536-5426,34.676207,-118.186166,7663046,6686245,-976801
Art Center College of Design,Pasadena,CA,91103,34.169031,-118.185102,133281000,127039000,-6242000
Azusa Pacific University,Azusa,CA,91702-7000,34.130047,-117.888375,100257631,89461386,-10796245
Bakersfield College,Bakersfield,CA,93305-1299,35.40911,-118.973753,15439229,13049194,-2390035
Barstow Community College,Barstow,CA,92311,34.870285,-117.023412,920088,919514,-574
Biola University,La Mirada,CA,90639-0001,33.906203,-118.014374,183701962,152137916,-31564046
Butte College,Oroville,CA,95965-8399,39.649782,-121.644831,6244063,5219454,-1024609
California Institute of Integral Studies,San Francisco,CA,94103,37.774924,-122.416102,1968374,1532318,-436056
Cabrillo College,Aptos,CA,95003,36.989448,-121.924797,30268173,32717466,2449293
California Baptist University,Riverside,CA,92504-3297,33.929321,-117.425619,103827086,119106756,15279670
California College of the Arts,San Francisco,CA,94107-2247,37.767485,-122.399451,48581000,43266000,-5315000
University of California-Hastings College of Law,San Francisco,CA,94102-4978,37.781137,-122.4157,53626697,57028028,3401331
California Institute of Technology,Pasadena,CA,91125,34.137349,-118.125878,4022359000,3390504000,-631855000
California Lutheran University,Thousand Oaks,CA,91360-2787,34.224566,-118.878924,145735309,143062043,-2673266
California Polytechnic State University-San Luis Obispo,San Luis Obispo,CA,93407,35.299513,-120.657311,287263401,243030195,-44233206
California State University-Bakersfield,Bakersfield,CA,93311-1099,35.350005,-119.104711,36234619,35096739,-1137880
California State University-Stanislaus,Turlock,CA,95382-0299,37.52577,-120.852511,19952255,17521345,-2430910
California State University-San Bernardino,San Bernardino,CA,92407-2393,34.182622,-117.323801,55847119,46938805,-8908314
California State Polytechnic University-Pomona,Pomona,CA,91768,34.057912,-117.821476,165967403,148753352,-17214051
California State University-Chico,Chico,CA,95929-0150,39.729712,-121.844859,90007504,81761062,-8246442
California State University-Dominguez Hills,Carson,CA,90747-0005,33.864766,-118.255917,18223221,19809724,1586503
California State University-Fresno,Fresno,CA,93740,36.811154,-119.744569,208774969,199855793,-8919176
California State University-Fullerton,Fullerton,CA,92831-3599,33.881506,-117.885446,106015057,125170390,19155333
California State University-East Bay,Hayward,CA,94542,37.657694,-122.054135,20765213,22543520,1778307
California State University-Long Beach,Long Beach,CA,90840-0115,33.782818,-118.11204,109666865,108177617,-1489248
California State University-Los Angeles,Los Angeles,CA,90032-8506,34.066927,-118.168965,63636268,55013887,-8622381
California State University-Northridge,Northridge,CA,91330,34.240126,-118.529319,174274264,198276391,24002127
California State University-Sacramento,Sacramento,CA,95819-2694,38.559415,-121.423549,73709374,66309218,-7400156
University of California-Berkeley,Berkeley,CA,94720,37.871918,-122.260463,2985932000,2727165000,-258767000
University of California-Davis,Davis,CA,95616-8678,38.539667,-121.749567,643190000,634651000,-8539000
University of California-Irvine,Irvine,CA,92697,33.648434,-117.841248,762109000,723966000,-38143000
University of California-Los Angeles,Los Angeles,CA,90095-1405,34.07178,-118.442179,3161977000,2903804000,-258173000
University of California-Riverside,Riverside,CA,92521,33.97246,-117.32741,259599000,236970000,-22629000
University of California-San Diego,La Jolla,CA,92093,32.877749,-117.235866,1258061000,1196455000,-61606000
University of California-San Francisco,San Francisco,CA,94143-0244,37.763737,-122.458489,2435366000,2291207000,-144159000
University of California-Santa Barbara,Santa Barbara,CA,93106,34.416297,-119.846426,377817000,352376000,-25441000
University of California-Santa Cruz,Santa Cruz,CA,95064-1011,36.995584,-122.058801,155697000,145468000,-10229000
California Christian College,Fresno,CA,93727,36.749366,-119.711123,118963,110430,-8533
California Institute of the Arts,Valencia,CA,91355-2397,34.39327,-118.566837,234418752,215891775,-18526977
California State University Maritime Academy,Vallejo,CA,94590-8181,38.069061,-122.231551,13514934,12264913,-1250021
California Western School of Law,San Diego,CA,92101-3046,32.722192,-117.162416,31145338,27835339,-3309999
College of the Canyons,Santa Clarita,CA,91355-1899,34.403993,-118.568698,2941496,2499899,-441597
Chaffey College,Rancho Cucamonga,CA,91737-3002,34.147663,-117.573932,1963097,2512047,548950
Chapman University,Orange,CA,92866,33.79302,-117.852518,564411000,608097000,43686000
Charles R Drew University of Medicine and Science,Los Angeles,CA,90059,33.925658,-118.242791,117359500,103121400,-14238100
Concordia University-Irvine,Irvine,CA,92612-3203,33.653665,-117.812305,44436329,47999681,3563352
San Diego Christian College,Spring Valley,CA,91977,32.750035,-116.993906,667950,685207,17257
Church Divinity School of the Pacific,Berkeley,CA,94709-1211,37.876184,-122.261122,26076103,30151273,4075170
Citrus College,Glendora,CA,91741-1899,34.13537,-117.886469,8563881,7856765,-707116
Claremont Graduate University,Claremont,CA,91711-6160,34.103585,-117.713703,216256639,196273203,-19983436
Claremont McKenna College,Claremont,CA,91711-6400,34.102154,-117.711188,1313226000,1224986000,-88240000
Coastline Community College,Fountain Valley,CA,92708-2597,33.715634,-117.929143,3077683,3077684,1
Western University of Health Sciences,Pomona,CA,91766-1854,34.058092,-117.747732,64037245,59131707,-4905538
Columbia College,Sonora,CA,95370,38.030367,-120.388385,2076432,2140132,63700
Contra Costa College,San Pablo,CA,94806,37.969381,-122.337377,9954116,8661399,-1292717
Cuesta College,San Luis Obispo,CA,93403-8106,35.331276,-120.742235,38518773,32745827,-5772946
Cuyamaca College,El Cajon,CA,92019,32.744954,-116.943507,1130379,1194034,63655
De Anza College,Cupertino,CA,95014,37.319914,-122.045783,17501514,14592334,-2909180
College of the Desert,Palm Desert,CA,92260,33.732108,-116.388271,28023860,42244250,14220390
Diablo Valley College,Pleasant Hill,CA,94523,37.968516,-122.073142,8605458,7760595,-844863
Dominican University of California,San Rafael,CA,94901-2298,37.981279,-122.512051,34890809,30059220,-4831589
Dominican School of Philosophy & Theology,Berkeley,CA,94708-1816,37.881099,-122.264612,8930820,7562180,-1368640
Feather River Community College District,Quincy,CA,95971-9124,39.953101,-120.973067,47926,48286,360
Fielding Graduate University,Santa Barbara,CA,93105-3538,34.42941,-119.717161,8975862,8466174,-509688
Foothill College,Los Altos Hills,CA,94022,37.361655,-122.127964,12212431,10523559,-1688872
Franciscan School of Theology,San Diego,CA,92110,32.770816,-117.192073,5226942,5281942,55000
Fresno City College,Fresno,CA,93741,36.768164,-119.796096,8453973,7503993,-949980
Fresno Pacific University,Fresno,CA,93702-4709,36.726831,-119.735199,21733785,18810594,-2923191
Fuller Theological Seminary,Pasadena,CA,91182,34.14778,-118.140261,183425000,148818000,-34607000
Glendale Community College,Glendale,CA,91208-2894,34.16745,-118.227666,9253218,7951073,-1302145
Golden Gate University,San Francisco,CA,94105-2968,37.789374,-122.398969,50637080,43299581,-7337499
Golden West College,Huntington Beach,CA,92647-2710,33.732531,-118.002568,11311597,11371011,59414
Graduate Theological Union,Berkeley,CA,94709,37.87554,-122.261847,58627536,52589124,-6038412
Grossmont College,El Cajon,CA,92020-1799,32.815246,-117.006277,1942148,1974665,32517
Hartnell College,Salinas,CA,93901,36.675091,-121.666054,13743875,10775522,-2968353
Harvey Mudd College,Claremont,CA,91711,34.106515,-117.709837,443743590,401525407,-42218183
Holy Names University,Oakland,CA,94619-1699,37.802276,-122.187804,65883224,57903967,-7979257
California State Polytechnic University-Humboldt,Arcata,CA,95521-8299,40.877481,-124.078293,36335250,29965657,-6369593
Humphreys University-Stockton and Modesto Campuses,Stockton,CA,95207,38.011489,-121.316918,522063,202645,-319418
Imperial Valley College,Imperial,CA,92251-0158,32.827209,-115.503563,2350098,2439942,89844
Irvine Valley College,Irvine,CA,92618-0301,33.675381,-117.777539,2565030,2385486,-179544
American Jewish University,Los Angeles,CA,90077-1519,34.128153,-118.471706,26306540,23186841,-3119699
Reedley College,Reedley,CA,93654,36.605428,-119.458555,1976947,1724438,-252509
Life Pacific University,San Dimas,CA,91773-3298,34.098705,-117.829388,4787112,4376960,-410152
University of La Verne,La Verne,CA,91750-4401,34.100855,-117.773262,146560560,122161420,-24399140
Laguna College of Art and Design,Laguna Beach,CA,92651,33.561448,-117.772564,3863034,3498204,-364830
Lake Tahoe Community College,South Lake Tahoe,CA,96150,38.926797,-119.972574,3301618,3549395,247777
Lassen Community College,Susanville,CA,96130,40.432053,-120.633271,70657,248094,177437
Latin American Bible Institute,La Puente,CA,91746-3099,34.030992,-117.989601,48363,48533,170
Lincoln University,Oakland,CA,94612-2801,37.804788,-122.269745,16726,1,-16725
Southern California Seminary,El Cajon,CA,92019-1108,32.799614,-116.905461,115851,115850,-1
La Sierra University,Riverside,CA,92505-8247,33.910704,-117.500054,23441032,22453216,-987816
Loma Linda University,Loma Linda,CA,92350,34.051241,-117.260605,500804000,533762000,32958000
Southern California University of Health Sciences,Whittier,CA,90604,33.922966,-117.983401,1557026,1548334,-8692
The Master's University and Seminary,Santa Clarita,CA,91321-1200,34.381755,-118.518193,48079806,44398271,-3681535
Los Angeles County College of Nursing and Allied Health,Los Angeles,CA,90033-1084,34.062647,-118.211852,467452,465677,-1775
Los Medanos College,Pittsburg,CA,94565,38.006474,-121.860967,1456884,1353111,-103773
Loyola Marymount University,Los Angeles,CA,90045-2659,33.97085,-118.415744,623508000,637303000,13795000
College of Marin,Kentfield,CA,94904-2590,37.951918,-122.548758,1319380,2523200,1203820
Mendocino College,Ukiah,CA,95482,39.188989,-123.228809,12039417,10801249,-1238168
Menlo College,Atherton,CA,94027-4301,37.453475,-122.190797,29216495,23818188,-5398307
Merced College,Merced,CA,95348-2806,37.3353,-120.476464,9967786,10084923,117137
MiraCosta College,Oceanside,CA,92056-3899,33.190483,-117.302606,16563496,13330818,-3232678
Modesto Junior College,Modesto,CA,95350-5800,37.651056,-121.009792,7507021,7414175,-92846
Middlebury Institute of International Studies at Monterey,Monterey,CA,93940,36.599736,-121.897325,173765115,168728920,-5036195
Mount Saint Mary's University,Los Angeles,CA,90049-1599,34.085315,-118.482879,180781895,157775106,-23006789
Mt San Jacinto Community College District,San Jacinto,CA,92583-2399,33.806748,-116.971169,4635484,4085598,-549886
National University,San Diego,CA,92123,32.829299,-117.127296,1415757578,1209313516,-206444062
Notre Dame de Namur University,Belmont,CA,94002-1908,37.517111,-122.284794,24097403,20664620,-3432783
Occidental College,Los Angeles,CA,90041-3392,34.127124,-118.210908,575809817,575933105,123288
Ohlone College,Fremont,CA,94539-0390,37.529931,-121.911795,5479514,3989107,-1490407
Orange Coast College,Costa Mesa,CA,92626,33.66927,-117.909086,43789697,42348878,-1440819
Otis College of Art and Design,Los Angeles,CA,90045-3505,33.956607,-118.416615,24557904,21327765,-3230139
Hope International University,Fullerton,CA,92831-3199,33.87616,-117.88573,9530225,9210838,-319387
Palo Alto University,Palo Alto,CA,94304-1337,37.382216,-122.187437,623889,672389,48500
Pacific Oaks College,Pasadena,CA,91103,34.153382,-118.151323,12572683,11442360,-1130323
Pacific School of Religion,Berkeley,CA,94709,37.87669,-122.263155,51895494,44149447,-7746047
Pacific Union College,Angwin,CA,94508-9707,38.570585,-122.440308,34745313,31215552,-3529761
University of the Pacific,Stockton,CA,95211-0197,37.981424,-121.312301,625143890,568233594,-56910296
Palo Verde College,Blythe,CA,92225,33.661538,-114.651698,1960042,1662785,-297257
Palomar College,San Marcos,CA,92069-1487,33.149483,-117.183978,10461756,18978358,8516602
Pepperdine University,Malibu,CA,90263,34.037786,-118.707077,1145292000,1200868000,55576000
Pitzer College,Claremont,CA,91711-6101,34.104107,-117.706675,179391175,168248383,-11142792
Point Loma Nazarene University,San Diego,CA,92106-2899,32.718391,-117.250265,70249099,67948300,-2300799
Pomona College,Claremont,CA,91711-6319,34.099027,-117.714556,3031446000,2764972000,-266474000
Porterville College,Porterville,CA,93257,36.049256,-119.014368,600699,511484,-89215
Santa Ana College,Santa Ana,CA,92706-3398,33.759309,-117.887558,13516392,13159737,-356655
Pardee RAND Graduate School,Santa Monica,CA,90401-3208,34.00973,-118.490655,55952463,47491000,-8461463
University of Redlands,Redlands,CA,92373-0999,34.064218,-117.163218,259218537,232004342,-27214195
College of the Redwoods,Eureka,CA,95501-9300,40.698427,-124.195293,4247100,3422881,-824219
Rio Hondo College,Whittier,CA,90601-1616,34.019821,-118.033506,3235297,2926312,-308985
Riverside City College,Riverside,CA,92506,33.970918,-117.384323,6053297,5926251,-127046
Saddleback College,Mission Viejo,CA,92692-3635,33.553346,-117.665584,5312184,7315260,2003076
Samuel Merritt University,Oakland,CA,94609,37.82029,-122.266331,30926479,31463462,536983
San Diego State University,San Diego,CA,92182-0001,32.77525,-117.071228,418056006,398039847,-20016159
University of San Diego,San Diego,CA,92110-2492,32.770816,-117.192073,692916000,652516000,-40400000
San Francisco Conservatory of Music,San Francisco,CA,94102-6011,37.775543,-122.420292,55862000,49497000,-6365000
San Francisco State University,San Francisco,CA,94132,37.721224,-122.476799,181666299,156882606,-24783693
University of San Francisco,San Francisco,CA,94117-1080,37.776618,-122.450477,581569000,502679000,-78890000
San Joaquin College of Law,Clovis,CA,93612-1312,36.82448,-119.697657,952219,863045,-89174
William Jessup University,Rocklin,CA,95765-3707,38.819728,-121.292312,5330426,5290818,-39608
San Jose State University,San Jose,CA,95192-0001,37.336569,-121.880621,197133502,167381342,-29752160
Santa Barbara City College,Santa Barbara,CA,93109-2394,34.406788,-119.698045,70249587,64005207,-6244380
Santa Clara University,Santa Clara,CA,95053,37.348362,-121.93784,1537642000,1471579000,-66063000
Santa Monica College,Santa Monica,CA,90405-1628,34.017022,-118.469765,16466539,14430702,-2035837
Santa Rosa Junior College,Santa Rosa,CA,95401-4395,38.45709,-122.718974,62590487,54759426,-7831061
Scripps College,Claremont,CA,91711-3905,34.104147,-117.711294,540008783,460616238,-79392545
College of the Sequoias,Visalia,CA,93277-2214,36.323877,-119.315182,14586094,16366826,1780732
Shasta Bible College and Graduate School,Redding,CA,96002,40.566034,-122.314419,25000,39268,14268
Sierra College,Rocklin,CA,95677-3397,38.790773,-121.211688,10269509,9793312,-476197
Trinity Law School,Santa Ana,CA,92705,33.766071,-117.852059,202635,142360,-60275
Simpson University,Redding,CA,96003-8606,40.61334,-122.332981,7673421,7425064,-248357
College of the Siskiyous,Weed,CA,96094-2899,41.413005,-122.38909,1796348,1932442,136094
Saint Mary's College of California,Moraga,CA,94575,37.840731,-122.109031,215804000,184865000,-30939000
Sonoma State University,Rohnert Park,CA,94928-3609,38.340274,-122.677066,45936172,49382194,3446022
Vanguard University of Southern California,Costa Mesa,CA,92626,33.662686,-117.900911,10119935,9083226,-1036709
Southwestern College,Chula Vista,CA,91910-7299,32.640281,-116.996803,2669627,2468449,-201178
Starr King School for the Ministry,Oakland,CA,94612,37.803526,-122.270721,9560849,7833588,-1727261
Marshall B Ketchum University,Fullerton,CA,92831-1699,33.889348,-117.886229,11200301,9917045,-1283256
Southern California Institute of Architecture,Los Angeles,CA,90013-1822,34.044215,-118.232799,5947000,5221000,-726000
University of Southern California,Los Angeles,CA,90089,34.021281,-118.284169,8126222000,7400081000,-726141000
Southwestern Law School,Los Angeles,CA,90010-1106,34.061558,-118.288375,27638116,23384250,-4253866
Taft College,Taft,CA,93268,35.149343,-119.459751,2437249,2430412,-6837
Claremont School of Theology,Claremont,CA,91711-3199,34.107602,-117.715256,13457565,10518652,-2938913
Thomas Aquinas College,Santa Paula,CA,93060,34.429009,-119.087141,32002602,29370705,-2631897
The Colleges of Law at Ventura,Ventura,CA,93003,34.25747,-119.232988,1679750,1525447,-154303
Westminster Theological Seminary in California,Escondido,CA,92027,33.121447,-117.046371,721383,799383,78000
Westmont College,Santa Barbara,CA,93108-1089,34.450151,-119.662517,95147951,94513072,-634879
Whittier College,Whittier,CA,90601,33.978773,-118.032299,143477085,126453835,-17023250
Woodbury University,Burbank,CA,91504-1052,34.208011,-118.341147,23307341,19155677,-4151664
The Wright Institute,Berkeley,CA,94704-1796,37.868221,-122.253168,11986036,13532466,1546430
Thomas Jefferson School of Law,San Diego,CA,92101,32.717595,-117.157862,163685,163686,1
Adams State University,Alamosa,CO,81101,37.473636,-105.879642,62673,62674,1
Aims Community College,Greeley,CO,80634,40.409559,-104.763415,5216091,5202928,-13163
Colorado Christian University,Lakewood,CO,80226,39.71388,-105.09456,6710503,6129395,-581108
Colorado College,Colorado Springs,CO,80903,38.84886,-104.822697,908636719,822930608,-85706111
Colorado Mountain College,Glenwood Springs,CO,81601-0233,39.54636,-107.324441,20893517,18291178,-2602339
Colorado School of Mines,Golden,CO,80401,39.751443,-105.223364,359223868,322221638,-37002230
Colorado State University-Fort Collins,Fort Collins,CO,80523-0100,40.574805,-105.080732,578090016,549312222,-28777794
Community College of Aurora,Aurora,CO,80011-9036,39.71788,-104.802673,1083938,940439,-143499
Denver Seminary,Littleton,CO,80120,39.600595,-105.022363,15599879,14413896,-1185983
University of Denver,Denver,CO,80208,39.678005,-104.963259,1039771673,990340196,-49431477
Fort Lewis College,Durango,CO,81301-3999,37.275939,-107.867422,14817348,15010898,193550
Front Range Community College,Westminster,CO,80031,39.901452,-105.038068,1634315,1917405,283090
Iliff School of Theology,Denver,CO,80210-4798,39.675927,-104.960657,49423844,43236821,-6187023
Colorado Mesa University,Grand Junction,CO,81501-3122,39.080643,-108.553275,49369041,42109580,-7259461
Metropolitan State University of Denver,Denver,CO,80217-3362,39.744202,-105.00504,23175418,19765432,-3409986
Morgan Community College,Fort  Morgan,CO,80701,40.258792,-103.771822,8225093,7129602,-1095491
Naropa University,Boulder,CO,80302-6697,40.014235,-105.266987,3420916,3370010,-50906
Nazarene Bible College,Colorado Springs,CO,80920,38.944824,-104.803251,3962399,2721118,-1241281
Northeastern Junior College,Sterling,CO,80751-2944,40.637215,-103.197329,1237966,1238005,39
University of Northern Colorado,Greeley,CO,80639,40.410855,-104.692777,113678094,101029881,-12648213
Otero College,La Junta,CO,81050,37.969984,-103.544874,521080,740435,219355
Pikes Peak State College,Colorado Springs,CO,80906-5498,38.764287,-104.787261,5116668,4100029,-1016639
Regis University,Denver,CO,80221-1099,39.788175,-105.030756,87776856,86329241,-1447615
Colorado State University Pueblo,Pueblo,CO,81001-4901,38.30859,-104.579033,29817965,24292591,-5525374
Trinidad State College,Trinidad,CO,81082,37.172059,-104.513451,6890124,7607694,717570
United States Air Force Academy,USAF Academy,CO,80840-5002,39.010957,-104.891358,117539428,127842170,10302742
Western Colorado University,Gunnison,CO,81231,38.549936,-106.919132,10191734,9021836,-1169898
Albertus Magnus College,New Haven,CT,06511-1189,41.332519,-72.923848,34550522,25962284,-8588238
Asnuntuck Community College,Enfield,CT,06082,41.998409,-72.570177,655352,658248,2896
University of Bridgeport,Bridgeport,CT,06604-5620,41.164741,-73.190166,7000,2368000,2361000
Central Connecticut State University,New Britain,CT,06050,41.692502,-72.765991,99377963,89049879,-10328084
Charter Oak State College,New Britain,CT,06053,41.688246,-72.767972,2713650,2365141,-348509
Connecticut College,New London,CT,06320-4196,41.379833,-72.107321,434553000,416635000,-17918000
University of Connecticut,Storrs,CT,06269,41.809098,-72.249948,571194053,565628728,-5565325
Goodwin University,East Hartford,CT,06118,41.742977,-72.64032,13821000,12411000,-1410000
Eastern Connecticut State University,Willimantic,CT,06226,41.721673,-72.218753,18987957,16569400,-2418557
Fairfield University,Fairfield,CT,06824-5195,41.157673,-73.255903,411345000,357565000,-53780000
Capital Community College,Hartford,CT,06103,41.768397,-72.672734,2453936,1811081,-642855
Rensselaer at Hartford,Hartford,CT,06120,41.773462,-72.673916,4149000,3282000,-867000
Hartford International University for Religion and Peace,Hartford,CT,06105-2260,41.769861,-72.707766,60145202,50383043,-9762159
University of Hartford,West Hartford,CT,06117-1599,41.798591,-72.715213,232738000,191364000,-41374000
Housatonic Community College,Bridgeport,CT,06604-4704,41.175228,-73.191003,1433465,2242185,808720
Manchester Community College,Manchester,CT,06040,41.761625,-72.561939,4697065,4448306,-248759
Naugatuck Valley Community College,Waterbury,CT,06708-3089,41.549749,-73.072963,2310319,2245291,-65028
Middlesex Community College,Middletown,CT,06457-4829,41.539516,-72.611838,1077253,1107982,30729
Mitchell College,New London,CT,06320,41.328013,-72.09523,9530459,7947276,-1583183
Three Rivers Community College,Norwich,CT,06360,41.509945,-72.103039,6892991,6027202,-865789
University of New Haven,West Haven,CT,06516-1916,41.291314,-72.961472,94617538,86882337,-7735201
Norwalk Community College,Norwalk,CT,06854,41.102574,-73.450965,32470795,28565333,-3905462
Northwestern Connecticut Community College,Winsted,CT,06098,41.920668,-73.058734,1929524,2685346,755822
Quinebaug Valley Community College,Danielson,CT,06239-1436,41.82623,-71.889673,5707085,4773475,-933610
Quinnipiac University,Hamden,CT,06518,41.418915,-72.894117,824411508,718760681,-105650827
Sacred Heart University,Fairfield,CT,06825-1000,41.220893,-73.243332,245516767,238461481,-7055286
University of Saint Joseph,West Hartford,CT,06117,41.781041,-72.72965,45085000,40425000,-4660000
Gateway Community College,New Haven,CT,06510,41.303785,-72.927682,2179603,2579598,399995
Southern Connecticut State University,New Haven,CT,06515-1355,41.333225,-72.947897,37148061,32290983,-4857078
Trinity College,Hartford,CT,06106-3100,41.747451,-72.690882,795206957,795976337,769380
Tunxis Community College,Farmington,CT,06032-3187,41.705498,-72.87754,961352,961333,-19
United States Coast Guard Academy,New London,CT,06320-4195,41.375823,-72.101583,97772935,87282474,-10490461
Wesleyan University,Middletown,CT,06459,41.554665,-72.657146,1669796000,1564521000,-105275000
Western Connecticut State University,Danbury,CT,06810-6826,41.400365,-73.444264,26564963,23411311,-3153652
Yale University,New Haven,CT,06520,41.311158,-72.926688,42282852000,41383260000,-899592000
Delaware State University,Dover,DE,19901,39.187173,-75.54053,40596772,36063061,-4533711
University of Delaware,Newark,DE,19716,39.679577,-75.752822,1957793296,1781176682,-176616614
Goldey-Beacom College,Wilmington,DE,19808,39.741501,-75.689624,194801276,163216236,-31585040
Wilmington University,New Castle,DE,19720,39.682299,-75.586998,159778975,155137083,-4641892
American University,Washington,DC,20016-8001,38.936005,-77.088875,884305000,908905000,24600000
The Catholic University of America,Washington,DC,20064,38.933651,-76.997909,341804586,358681337,16876751
University of the District of Columbia,Washington,DC,20008,38.943819,-77.066247,63745747,53496262,-10249485
Pontifical Faculty of the Immaculate Conception at the Dominican House of Studies,Washington,DC,20017-1585,38.931652,-76.998724,2386397,2593154,206757
Gallaudet University,Washington,DC,20002-3695,38.907371,-76.993675,232869006,191649039,-41219967
George Washington University,Washington,DC,20052,38.89923,-77.048363,2411272000,2340361000,-70911000
Georgetown University,Washington,DC,20057-0001,38.908809,-77.073463,2592048000,3210032000,617984000
Howard University,Washington,DC,20059,38.922392,-77.018966,806419000,862784000,56365000
Trinity Washington University,Washington,DC,20017-1094,38.927398,-77.004261,47419689,37262062,-10157627
Wesley Theological Seminary,Washington,DC,20016-5690,38.939606,-77.08996,36610908,30842705,-5768203
The Baptist College of Florida,Graceville,FL,32440,30.962708,-85.503931,8450912,8326187,-124725
Barry University,Miami,FL,33161-6695,25.878908,-80.198925,54487883,49943246,-4544637
Bethune-Cookman University,Daytona Beach,FL,32114-3099,29.207195,-81.032946,34996645,33794414,-1202231
Lynn University,Boca Raton,FL,33431-5598,26.385985,-80.122806,38790567,35987284,-2803283
Eastern Florida State College,Melbourne,FL,32935,28.170002,-80.670781,21652652,18661055,-2991597
Broward College,Fort Lauderdale,FL,33301,26.119422,-80.14183,43955775,44257918,302143
College of Central Florida,Ocala,FL,34474,29.166079,-82.175692,83508629,91682945,8174316
Johnson University Florida,Kissimmee,FL,34744,28.302547,-81.363053,1670154,1928898,258744
University of Central Florida,Orlando,FL,32816,28.602159,-81.200889,198559038,174724636,-23834402
Chipola College,Marianna,FL,32446-2053,30.789228,-85.23139,19302441,17601676,-1700765
Daytona State College,Daytona Beach,FL,32114,29.203275,-81.049685,17000414,19529676,2529262
Eckerd College,Saint Petersburg,FL,33711-4700,27.715798,-82.687043,81121309,75413467,-5707842
Florida SouthWestern State College,Fort Myers,FL,33919,26.552403,-81.887102,49513921,49679138,165217
Edward Waters University,Jacksonville,FL,32209,30.34479,-81.684879,4151208,3482848,-668360
Embry-Riddle Aeronautical University-Daytona Beach,Daytona Beach,FL,32114-3900,29.189903,-81.048367,164826000,166178000,1352000
Florida Agricultural and Mechanical University,Tallahassee,FL,32307,30.428504,-84.290226,92852706,98299059,5446353
Florida Atlantic University,Boca Raton,FL,33431-0991,26.372421,-80.102978,375146137,334780801,-40365336
Florida State College at Jacksonville,Jacksonville,FL,32202,30.334918,-81.659901,28459413,38533487,10074074
Flagler College,Saint Augustine,FL,32084,29.892733,-81.314887,83206439,93200395,9993956
Florida College,Temple Terrace,FL,33617,28.034936,-82.383289,19635436,18635137,-1000299
AdventHealth University,Orlando,FL,32803,28.576142,-81.367687,9875753,10320727,444974
Florida Institute of Technology,Melbourne,FL,32901-6975,28.065815,-80.622893,110850056,88925472,-21924584
Florida International University,Miami,FL,33199,25.75732,-80.373928,276410044,284292410,7882366
The College of the Florida Keys,Key West,FL,33040,24.582748,-81.74446,6480615,6366597,-114018
Florida Memorial University,Miami Gardens,FL,33054-6199,25.918278,-80.270753,6013894,5103989,-909905
Florida Southern College,Lakeland,FL,33801-5698,28.032443,-81.948203,111809685,106785429,-5024256
Florida State University,Tallahassee,FL,32306-1037,30.443147,-84.295064,897762598,898119860,357262
University of Florida,Gainesville,FL,32611,29.64629,-82.347911,2375793000,2272548000,-103245000
Gulf Coast State College,Panama City,FL,32401,30.185542,-85.727918,38517879,35134439,-3383440
Hillsborough Community College,Tampa,FL,33606-3584,27.934888,-82.456253,5231595,6202352,970757
Hobe Sound Bible College,Hobe Sound,FL,33455-1065,27.066304,-80.13184,2677030,2749037,72007
Indian River State College,Fort Pierce,FL,34981-5596,27.42416,-80.358682,28526945,29320209,793264
Jacksonville University,Jacksonville,FL,32211-3394,30.353227,-81.60458,59216191,55653324,-3562867
Florida Gateway College,Lake City,FL,32025-2007,30.175298,-82.5679,16648725,17562238,913513
Lake-Sumter State College,Leesburg,FL,34788-8751,28.828649,-81.797193,12280939,13903847,1622908
Luther Rice College & Seminary,Lithonia,GA,30038-9869,33.698126,-84.123179,1256120,1311137,55017
State College of Florida-Manatee-Sarasota,Bradenton,FL,34207,27.43804,-82.590887,46310607,57898788,11588181
Trinity International University-Florida,Miami,FL,33186,25.68307,-80.417646,425000,248004,-176996
Miami Dade College,Miami,FL,33132-2204,25.777717,-80.190856,272843053,259013444,-13829609
University of Miami,Coral Gables,FL,33146,25.72126,-80.278662,1393436637,1344283912,-49152725
North Florida College,Madison,FL,32340,30.473841,-83.420732,4069519,4257317,187798
University of North Florida,Jacksonville,FL,32224-7699,30.27194,-81.509144,141106152,126531762,-14574390
Nova Southeastern University,Fort Lauderdale,FL,33314-7796,26.079337,-80.24248,226994000,200766000,-26228000
Northwest Florida State College,Niceville,FL,32578-1295,30.540017,-86.47456,37721413,38328700,607287
Palm Beach Atlantic University,West Palm Beach,FL,33401,26.7044,-80.05247,97750000,97755000,5000
Palm Beach State College,Lake Worth,FL,33461-4796,26.61256,-80.08653,20726537,21228494,501957
Pasco-Hernando State College,New Port Richey,FL,34654-5199,28.2751,-82.646727,61797860,68385681,6587821
Pensacola State College,Pensacola,FL,32504-8998,30.479267,-87.200265,11821324,14466368,2645044
Polk State College,Winter Haven,FL,33881-4299,28.032411,-81.711873,33720521,37621889,3901368
Saint Vincent de Paul Regional Seminary,Boynton Beach,FL,33436-4899,26.516538,-80.125185,39243815,34033746,-5210069
Ringling College of Art and Design,Sarasota,FL,34234-5895,27.360931,-82.547803,63982310,61659431,-2322879
Rollins College,Winter Park,FL,32789-4499,28.592787,-81.349239,460276000,467238000,6962000
Saint Leo University,Saint Leo,FL,33574-6665,28.336776,-82.257801,92347642,67564541,-24783101
St Petersburg College,St. Petersburg,FL,33701,27.773264,-82.636587,32111406,33992804,1881398
Santa Fe College,Gainesville,FL,32606-6210,29.681037,-82.433143,35295242,36217622,922380
Seminole State College of Florida,Sanford,FL,32773-6199,28.745482,-81.308003,12526522,13094440,567918
St. John Vianney College Seminary,Miami,FL,33165-3244,25.742579,-80.337411,10608544,10608545,1
Saint Johns River State College,Palatka,FL,32177,29.647516,-81.681387,3243258,3326788,83530
South Florida State College,Avon Park,FL,33825-9356,27.56974,-81.508667,15289581,17420690,2131109
University of South Florida,Tampa,FL,33620-9951,28.061458,-82.413232,692741042,604516638,-88224404
St. Thomas University,Miami Gardens,FL,33054-6459,25.922071,-80.253273,40042465,34405192,-5637273
Stetson University,DeLand,FL,32723,29.035475,-81.300746,387215324,352639796,-34575528
Southeastern University,Lakeland,FL,33801-6034,28.029733,-81.918382,10050766,10299383,248617
Tallahassee Community College,Tallahassee,FL,32304-2895,30.443866,-84.339,17089503,17884735,795232
The University of Tampa,Tampa,FL,33606-1490,27.948455,-82.46483,58215971,56608582,-1607389
Trinity Baptist College,Jacksonville,FL,32221,30.311171,-81.79626,113899,95233,-18666
Trinity College of Florida,Trinity,FL,34655-4401,28.194732,-82.678318,825648,842253,16605
Valencia College,Orlando,FL,32835,28.520898,-81.471466,88705021,91586993,2881972
Warner University,Lake Wales,FL,33859-8797,27.825751,-81.599972,6907619,6604180,-303439
Webber International University,Babson Park,FL,33827-0096,27.838778,-81.532315,6863658,6700351,-163307
The University of West Florida,Pensacola,FL,32514-5750,30.549076,-87.218511,100513345,86874886,-13638459
Abraham Baldwin Agricultural College,Tifton,GA,31793-2601,31.481889,-83.528281,21693997,19053103,-2640894
Agnes Scott College,Decatur,GA,30030-3770,33.769268,-84.295459,247192299,218548954,-28643345
Albany State University,Albany,GA,31705,31.56928,-84.141825,4114598,4043047,-71551
Andrew College,Cuthbert,GA,39840-5550,31.772321,-84.795021,9881145,8904436,-976709
Point University,West Point,GA,31833,32.87912,-85.184931,4923245,5259269,336024
Atlanta Metropolitan State College,Atlanta,GA,30310-4448,33.70893,-84.404659,605424,542698,-62726
Clark Atlanta University,Atlanta,GA,30314-4391,33.747628,-84.412584,102435884,92509648,-9926236
Berry College,Mount Berry,GA,30149,34.290414,-85.189202,1212852600,1236197740,23345140
Brenau University,Gainesville,GA,30501-3668,34.303117,-83.821513,61256728,50668512,-10588216
Brewton-Parker College,Mount Vernon,GA,30445,32.185718,-82.586136,8818597,7928344,-890253
College of Coastal Georgia,Brunswick,GA,31520-3644,31.181983,-81.486169,10583326,11706195,1122869
Clayton  State University,Morrow,GA,30260-0285,33.594079,-84.328174,19068017,17554648,-1513369
Columbia Theological Seminary,Decatur,GA,30030-4118,33.764292,-84.281695,283181196,262315196,-20866000
Columbus State University,Columbus,GA,31907-5645,32.50096,-84.94106,93388136,83722548,-9665588
Covenant College,Lookout Mountain,GA,30750-4164,34.965161,-85.375066,58567097,53641234,-4925863
Dalton State College,Dalton,GA,30720-3797,34.774221,-85.002775,18074500,19963771,1889271
East Georgia State College,Swainsboro,GA,30401,32.594944,-82.309021,405253,357523,-47730
Emmanuel College,Franklin Springs,GA,30639,34.283641,-83.14822,1806609,2015316,208707
Emory University,Atlanta,GA,30322,33.790183,-84.325512,12218692520,11155404520,-1063288000
Georgia Highlands College,Rome,GA,30161-3897,34.169791,-85.207356,2662232,2475595,-186637
Fort Valley State University,Fort Valley,GA,31030-4313,32.537595,-83.89537,13000000,13200000,200000
Georgia Institute of Technology-Main Campus,Atlanta,GA,30332-0530,33.77242,-84.394832,2971501257,2927741911,-43759346
Georgia Southwestern State University,Americus,GA,31709-4693,32.054662,-84.217738,42214736,35924941,-6289795
Georgia College & State University,Milledgeville,GA,31061,33.082787,-83.231962,65814122,57612368,-8201754
Georgia Southern University,Statesboro,GA,30460-8126,32.426153,-81.784045,101163961,98401763,-2762198
Georgia State University,Atlanta,GA,30303-3083,33.7527,-84.38667,241254286,219510836,-21743450
University of Georgia,Athens,GA,30602,33.956262,-83.374039,1818866444,1685035351,-133831093
Gordon State College,Barnesville,GA,30204,33.04571,-84.154508,4933982,4249951,-684031
Interdenominational Theological Center,Atlanta,GA,30314-4143,33.752338,-84.409207,5995013,5737953,-257060
LaGrange College,Lagrange,GA,30240-2999,33.038564,-85.043113,61084679,54064652,-7020027
Life University,Marietta,GA,30060,33.932781,-84.514729,3356258,3477455,121197
Mercer University,Macon,GA,31207,32.829134,-83.649392,475458642,452556294,-22902348
Morehouse College,Atlanta,GA,30314,33.745982,-84.414917,278037237,246017759,-32019478
Morehouse School of Medicine,Atlanta,GA,30310,33.742888,-84.41186,122808596,117085940,-5722656
Morris Brown College,Atlanta,GA,30314-4140,33.753707,-84.407668,213950,342181,128231
Oglethorpe University,Atlanta,GA,30319-2797,33.875441,-84.333687,46136756,41533040,-4603716
Paine College,Augusta,GA,30901-3182,33.469545,-81.993225,13814535,12042232,-1772303
Piedmont University,Demorest,GA,30535-0010,34.566042,-83.542126,54955833,43570462,-11385371
Reinhardt University,Waleska,GA,30183-2981,34.319756,-84.554264,46691079,42400131,-4290948
Savannah College of Art and Design,Savannah,GA,31402-3146,32.072964,-81.09395,258231000,255300000,-2931000
Savannah State University,Savannah,GA,31404-5310,32.024781,-81.063377,13133522,11964916,-1168606
Shorter University,Rome,GA,30165,34.257543,-85.196529,14260643,14657745,397102
Spelman College,Atlanta,GA,30314-4399,33.745279,-84.411527,570846842,497744540,-73102302
Thomas University,Thomasville,GA,31792,30.815576,-83.963587,7018289,6654592,-363697
Toccoa Falls College,Toccoa Falls,GA,30598,34.593414,-83.357617,3960877,3469987,-490890
Truett McConnell University,Cleveland,GA,30528,34.596306,-83.748911,6913578,6435557,-478021
Valdosta State University,Valdosta,GA,31698,30.847402,-83.289282,66312563,64362137,-1950426
Wesleyan College,Macon,GA,31210-4462,32.876037,-83.715417,66391792,58240802,-8150990
University of West Georgia,Carrollton,GA,30118-0001,33.573621,-85.097762,41076084,36358201,-4717883
Young Harris College,Young Harris,GA,30582,34.933523,-83.84587,136070081,113872489,-22197592
Chaminade University of Honolulu,Honolulu,HI,96816-1578,21.28995,-157.807851,32201036,34666684,2465648
University of Hawaii at Hilo,Hilo,HI,96720-4091,19.701189,-155.080847,348967,293175,-55792
University of Hawaii at Manoa,Honolulu,HI,96822-2217,21.298598,-157.818979,55724730,46589268,-9135462
Hawaii Pacific University,Honolulu,HI,96813,21.310306,-157.859645,56517099,48225650,-8291449
University of Hawaii Maui College,Kahului,HI,96732-1617,20.88956,-156.477252,432716,353663,-79053
University of Hawaii-West Oahu,Kapolei,HI,96707-4507,21.35531,-158.056403,288979,244196,-44783
Boise Bible College,Boise,ID,83714-1220,43.658651,-116.291321,1175706,697969,-477737
Boise State University,Boise,ID,83725,43.604284,-116.203301,155297053,135302476,-19994577
Idaho State University,Pocatello,ID,83209,42.863832,-112.432312,75070367,88703400,13633033
University of Idaho,Moscow,ID,83844-2282,46.727406,-117.014167,373800913,372857803,-943110
The College of Idaho,Caldwell,ID,83605-4432,43.652284,-116.677992,125768516,111180504,-14588012
Lewis-Clark State College,Lewiston,ID,83501-2698,46.412199,-117.024875,11723557,11514532,-209025
North Idaho College,Coeur d'Alene,ID,83814-2199,47.67569,-116.798905,34737001,30119876,-4617125
Northwest Nazarene University,Nampa,ID,83686-5897,43.562411,-116.565783,61223056,53597223,-7625833
Brigham Young University-Idaho,Rexburg,ID,83460-1690,43.818408,-111.782431,143350000,163625000,20275000
College of Southern Idaho,Twin Falls,ID,83301,42.579837,-114.473901,36961338,36783416,-177922
Adler University,Chicago,IL,60602,41.882414,-87.629156,211478,179022,-32456
School of the Art Institute of Chicago,Chicago,IL,60603,41.88105,-87.625758,352315000,312399000,-39916000
Augustana College,Rock Island,IL,61201-2296,41.502365,-90.55057,215416774,196811090,-18605684
Aurora University,Aurora,IL,60506-4892,41.753631,-88.349023,52544153,45525480,-7018673
Southwestern Illinois College,Belleville,IL,62221-5899,38.516406,-89.924466,5261931,5838255,576324
Bethany Theological Seminary,Richmond,IN,47374-4019,39.826244,-84.910689,49402148,43617909,-5784239
Black Hawk College,Moline,IL,61265-5899,41.477283,-90.447799,10818297,9432811,-1385486
Blackburn College,Carlinville,IL,62626,39.287896,-89.870241,33195180,30001668,-3193512
Bradley University,Peoria,IL,61625-0001,40.696896,-89.616786,387323869,345573676,-41750193
Carl Sandburg College,Galesburg,IL,61401,40.98128,-90.408203,14918375,12873364,-2045011
Catholic Theological Union at Chicago,Chicago,IL,60615-5698,41.797895,-87.585989,33028892,30384705,-2644187
Midwestern University-Downers Grove,Downers Grove,IL,60515-5514,41.828115,-87.998342,5643393,6480847,837454
The Chicago School of Professional Psychology at Chicago,Chicago,IL,60654,41.888293,-87.63379,15555938,14674568,-881370
Chicago State University,Chicago,IL,60628-1598,41.718446,-87.609384,9731021,7644688,-2086333
Chicago Theological Seminary,Chicago,IL,60637,41.785701,-87.591178,27695026,28545041,850015
University of Chicago,Chicago,IL,60637,41.787994,-87.599539,9594956009,8569802385,-1025153624
Columbia College Chicago,Chicago,IL,60605-1996,41.874261,-87.624667,235614524,192071841,-43542683
Concordia University-Chicago,River Forest,IL,60305-1499,41.898696,-87.809482,30580635,25404270,-5176365
Danville Area Community College,Danville,IL,61832-5118,40.127539,-87.587884,16557194,17898480,1341286
DePaul University,Chicago,IL,60604,41.877618,-87.62724,956892000,817889000,-139003000
College of DuPage,Glen Ellyn,IL,60137-6599,41.841577,-88.071635,18070973,15554903,-2516070
Eastern Illinois University,Charleston,IL,61920,39.479843,-88.175658,62760242,66617761,3857519
Elgin Community College,Elgin,IL,60123-7193,42.018066,-88.32194,9842401,9247958,-594443
Elmhurst University,Elmhurst,IL,60126-3296,41.897164,-87.945369,155413572,152576718,-2836854
Eureka College,Eureka,IL,61530,40.71482,-89.269624,37679041,32975181,-4703860
Garrett-Evangelical Theological Seminary,Evanston,IL,60201-3298,42.056221,-87.675497,135421010,115238451,-20182559
Governors State University,University Park,IL,60484,41.449103,-87.716441,2867314,3363463,496149
Greenville University,Greenville,IL,62246,38.894162,-89.40824,31676358,29729957,-1946401
Hebrew Theological College,Skokie,IL,60077,42.010103,-87.760874,1331924,1347737,15813
Highland Community College,Freeport,IL,61032-9341,42.283344,-89.67342,30162024,27089873,-3072151
Rosalind Franklin University of Medicine and Science,North Chicago,IL,60064-3095,42.300069,-87.859632,100399046,89275055,-11123991
University of Illinois Chicago,Chicago,IL,60607,41.871837,-87.650503,567960582,540812282,-27148300
Benedictine University,Lisle,IL,60532-0900,41.777569,-88.097307,40689284,41680677,991393
Illinois College of Optometry,Chicago,IL,60616-3878,41.835447,-87.623016,1557389,1595624,38235
University of Illinois Urbana-Champaign,Champaign,IL,61820-5711,40.104718,-88.229114,2375506407,2233438413,-142067994
Illinois Wesleyan University,Bloomington,IL,61702-2900,40.489901,-88.992014,272717515,269244872,-3472643
Illinois Central College,East Peoria,IL,61635-0001,40.707235,-89.52485,27476115,24468712,-3007403
Illinois College,Jacksonville,IL,62650-2299,39.7313,-90.246171,155486965,146550216,-8936749
Illinois Institute of Technology,Chicago,IL,60616,41.8313,-87.627321,302661000,289121000,-13540000
Illinois State University,Normal,IL,61790-1000,40.509403,-88.990058,201100618,193093113,-8007505
Institute for Clinical Social Work,Chicago,IL,60640-1229,41.972414,-87.662806,125001,125000,-1
John A Logan College,Carterville,IL,62918-2500,37.747453,-89.09021,10362265,8542438,-1819827
John Wood Community College,Quincy,IL,62305-8736,39.913741,-91.335828,3235244,3084815,-150429
Joliet Junior College,Joliet,IL,60431-8938,41.500535,-88.180985,28449415,25382568,-3066847
Judson University,Elgin,IL,60123-1498,42.061754,-88.291336,7599735,6962603,-637132
Kankakee Community College,Kankakee,IL,60901,41.098178,-87.851047,9083950,8315537,-768413
Kaskaskia College,Centralia,IL,62801,38.562112,-89.191974,10060429,9704426,-356003
Kishwaukee College,Malta,IL,60150-9699,41.938234,-88.880524,3340399,3506756,166357
Knox College,Galesburg,IL,61401,40.943064,-90.373165,211136074,182154504,-28981570
College of Lake County,Grayslake,IL,60030-1198,42.354164,-88.012291,2661590,2868035,206445
Lake Forest College,Lake Forest,IL,60045-2338,42.249574,-87.827454,104553727,105290305,736578
Lake Forest Graduate School of Management,Lake Forest,IL,60045,42.243432,-87.893204,610573,492384,-118189
Lake Land College,Mattoon,IL,61938,39.416969,-88.380835,6,7,1
Lakeview College of Nursing,Danville,IL,61832,40.13855,-87.644379,18265603,20289768,2024165
Lewis University,Romeoville,IL,60446-2200,41.605432,-88.079032,105743452,100755611,-4987841
Lincoln Christian University,Lincoln,IL,62656-2111,40.148924,-89.346721,5715377,5422682,-292695
Lincoln Land Community College,Springfield,IL,62794-9256,39.721211,-89.611249,26786284,24741944,-2044340
Loyola University Chicago,Chicago,IL,60660,42.000765,-87.656872,928702115,900070383,-28631732
Lutheran School of Theology at Chicago,Chicago,IL,60615-5134,41.79563,-87.598978,59506326,45556838,-13949488
Trinity College of Nursing & Health Sciences,Rock Island,IL,61201-5317,41.484924,-90.568862,3466240,3157009,-309231
McCormick Theological Seminary,Chicago,IL,60615,41.79597,-87.598511,91022025,77501865,-13520160
McHenry County College,Crystal Lake,IL,60012-2761,42.259111,-88.368956,2739759,5894700,3154941
McKendree University,Lebanon,IL,62254-1291,38.608154,-89.816822,39993414,33877586,-6115828
Meadville Theological School of Lombard College,Chicago,IL,60601,41.885452,-87.62671,35420401,29982736,-5437665
Methodist College,Peoria,IL,61615,40.7804,-89.682864,2501078,2647684,146606
Millikin University,Decatur,IL,62522-2084,39.842612,-88.976298,111503642,102221463,-9282179
Monmouth College,Monmouth,IL,61462-1998,40.914824,-90.63731,146245258,121881403,-24363855
Moody Bible Institute,Chicago,IL,60610-3284,41.897822,-87.633459,43255280,43452478,197198
National Louis University,Chicago,IL,60603,41.880093,-87.624699,44899294,45738448,839154
National University of Health Sciences,Lombard,IL,60148-4583,41.861697,-88.013171,9579643,8957831,-621812
North Central College,Naperville,IL,60540,41.77576,-88.14279,144883225,119133580,-25749645
North Park University,Chicago,IL,60625-4895,41.975268,-87.709948,94935405,99496350,4560945
Northern Baptist Theological Seminary,Lisle,IL,60532-1348,41.809104,-88.056162,20050555,17225555,-2825000
Northern Illinois University,Dekalb,IL,60115-2828,41.933869,-88.766428,103524309,93856638,-9667671
Northwestern University,Evanston,IL,60208,42.050356,-87.679858,11361182000,10879850000,-481332000
Northeastern Illinois University,Chicago,IL,60625-4699,41.980399,-87.718983,12705271,13315469,610198
Olivet Nazarene University,Bourbonnais,IL,60914-2271,41.155237,-87.875165,57656845,52057993,-5598852
Parkland College,Champaign,IL,61821-1899,40.131963,-88.290359,13356332,13205910,-150422
Prairie State College,Chicago Heights,IL,60411-8226,41.525316,-87.638943,2709325,2993353,284028
Principia College,Elsah,IL,62028-9799,38.948835,-90.350285,484830532,538922082,54091550
Quincy University,Quincy,IL,62301-2699,39.938898,-91.385975,21500083,23301971,1801888
Rend Lake College,Ina,IL,62846,38.131481,-88.918283,5693851,5700636,6785
Richland Community College,Decatur,IL,62521-8513,39.883887,-88.894125,20430739,19529296,-901443
Rock Valley College,Rockford,IL,61114-5699,42.306174,-88.993544,8512789,7353228,-1159561
Rockford University,Rockford,IL,61108-2311,42.270639,-89.019536,30001378,26769658,-3231720
Roosevelt University,Chicago,IL,60605-1394,41.876055,-87.624952,168358153,145347000,-23011153
Dominican University,River Forest,IL,60305,41.902678,-87.823003,51368595,47176105,-4192490
Rush University,Chicago,IL,60612,41.874742,-87.668581,842013000,787786000,-54227000
University of St Francis,Joliet,IL,60435-6188,41.532225,-88.096057,28041418,26620483,-1420935
St. John's College-Department of Nursing,Springfield,IL,62702,39.807602,-89.64532,2381963,3376101,994138
Saint Xavier University,Chicago,IL,60655,41.707199,-87.714749,34523423,33079230,-1444193
University of Illinois Springfield,Springfield,IL,62703-5407,39.729524,-89.616796,24920231,28369606,3449375
Sauk Valley Community College,Dixon,IL,61021-9112,41.817659,-89.596483,5513555,6689266,1175711
Shawnee Community College,Ullin,IL,62992,37.270198,-89.03352,1419743,1267964,-151779
St. Augustine College,Chicago,IL,60640-3501,41.972414,-87.662806,154116,154117,1
University of Saint Mary of the Lake,Mundelein,IL,60060-1174,42.280702,-88.000262,47503374,44187324,-3316050
Southeastern Illinois College,Harrisburg,IL,62946,37.75174,-88.436631,5119954,5047355,-72599
Spertus College,Chicago,IL,60605,41.873881,-87.624785,19847121,20766397,919276
Spoon River College,Canton,IL,61520-8622,40.527991,-90.07233,4147349,4094605,-52744
Saint Anthony College of Nursing,Rockford,IL,61114,42.310147,-88.991968,8240598,6683722,-1556876
Southern Illinois University-Carbondale,Carbondale,IL,62901-4512,37.714193,-89.217273,195224587,174737614,-20486973
Southern Illinois University-Edwardsville,Edwardsville,IL,62026-1259,38.793949,-89.997779,36849269,33704893,-3144376
Trinity Christian College,Palos Heights,IL,60463-0929,41.667687,-87.783973,17928263,15249658,-2678605
Trinity International University-Illinois,Deerfield,IL,60015-1283,42.197945,-87.880851,53132066,50065977,-3066089
Triton College,River Grove,IL,60171-1995,41.916082,-87.841056,372150,372151,1
VanderCook College of Music,Chicago,IL,60616-3731,41.836833,-87.629138,410793,410792,-1
Waubonsee Community College,Sugar Grove,IL,60554-9454,41.795955,-88.459925,6549163,6076902,-472261
Oak Point University,Oak Brook,IL,60523,41.848066,-87.930551,10305560,9008646,-1296914
Western Illinois University,Macomb,IL,61455,40.468086,-90.686899,84316281,79273445,-5042836
Wheaton College,Wheaton,IL,60187-5593,41.870176,-88.099643,647433702,529360236,-118073466
William Rainey Harper College,Palatine,IL,60067-7398,42.081829,-88.072811,32792450,38427998,5635548
Anderson University,Anderson,IN,46012-3495,40.112768,-85.664315,45309000,40596000,-4713000
Ball State University,Muncie,IN,47306,40.203431,-85.409043,244456136,240976230,-3479906
Bethel University,Mishawaka,IN,46545-5591,41.678399,-86.194686,11385723,10183492,-1202231
Butler University,Indianapolis,IN,46208,39.8374,-86.172167,285556000,265591000,-19965000
Calumet College of Saint Joseph,Whiting,IN,46394,41.671008,-87.494123,5464282,4853582,-610700
Christian Theological Seminary,Indianapolis,IN,46208-3301,39.832673,-86.178551,143584430,127055892,-16528538
Concordia Theological Seminary,Fort Wayne,IN,46825-4996,41.139321,-85.10994,84923652,77470876,-7452776
DePauw University,Greencastle,IN,46135-1772,39.640904,-86.860363,801652516,719982432,-81670084
Earlham College,Richmond,IN,47374-4095,39.823431,-84.915037,474820554,426217096,-48603458
University of Evansville,Evansville,IN,47722,37.971549,-87.531644,169948415,156822698,-13125717
Franklin College,Franklin,IN,46131-2623,39.478298,-86.047182,103629221,87037997,-16591224
Goshen College,Goshen,IN,46526-4794,41.563582,-85.827795,138927572,122498360,-16429212
Grace College and Theological Seminary,Winona Lake,IN,46590-1274,41.22595,-85.814228,22560910,23802818,1241908
Hanover College,Hanover,IN,47243,38.715642,-85.460051,182593272,159262743,-23330529
Holy Cross College,Notre Dame,IN,46556-0308,41.698996,-86.253822,14081955,16919739,2837784
Huntington University,Huntington,IN,46750,40.898152,-85.497317,35229778,32017229,-3212549
Ivy Tech Community College,Indianapolis,IN,46208-5752,39.803753,-86.158213,46443681,42979958,-3463723
Purdue University Fort Wayne,Fort Wayne,IN,46805-1499,41.117278,-85.108962,79529663,78129799,-1399864
Indiana University-Purdue University-Indianapolis,Indianapolis,IN,46202-5143,39.772948,-86.172217,2252019515,2180644869,-71374646
University of Indianapolis,Indianapolis,IN,46227-3697,39.709571,-86.133969,136739291,123277355,-13461936
Indiana Institute of Technology,Fort Wayne,IN,46803-1228,41.078365,-85.116479,65913484,63701105,-2212379
University of Southern Indiana,Evansville,IN,47712,37.962374,-87.677214,155208079,127727513,-27480566
Indiana State University,Terre Haute,IN,47809,39.469073,-87.407846,79121000,73552657,-5568343
Indiana University-Kokomo,Kokomo,IN,46902-9003,40.460062,-86.132048,11677489,11793240,115751
Indiana University-South Bend,South Bend,IN,46615-7111,41.665324,-86.221991,33726642,34793837,1067195
Indiana University-Bloomington,Bloomington,IN,47405-7000,39.16609,-86.526559,1668817459,1669099260,281801
Indiana University-Northwest,Gary,IN,46408-1197,41.557324,-87.337249,17167262,17562589,395327
Indiana University-Southeast,New Albany,IN,47150,38.345191,-85.819985,26129534,27213540,1084006
Indiana University-East,Richmond,IN,47374-1289,39.868707,-84.881923,8439320,9359376,920056
Manchester University,North Manchester,IN,46962,41.010549,-85.762643,79850873,72815030,-7035843
Marian University,Indianapolis,IN,46222-1997,39.813233,-86.202643,101790925,88255432,-13535493
Indiana Wesleyan University-Marion,Marion,IN,46953-4974,40.517937,-85.667503,268508115,229901930,-38606185
Anabaptist Mennonite Biblical Seminary,Elkhart,IN,46517-1999,41.656013,-85.972165,25119343,22402933,-2716410
University of Notre Dame,Notre Dame,IN,46556,41.703058,-86.238959,18385354000,17101110000,-1284244000
Oakland City University,Oakland City,IN,47660-1099,38.340891,-87.35144,10341300,11034282,692982
Rose-Hulman Institute of Technology,Terre Haute,IN,47803-3920,39.483602,-87.326749,271284646,250558322,-20726324
University of Saint Francis-Fort Wayne,Fort Wayne,IN,46808-3994,41.087205,-85.177246,36138880,33875041,-2263839
Saint Mary-of-the-Woods College,Saint Mary of the Woods,IN,47876-1099,39.508546,-87.463791,12236240,11035079,-1201161
Saint Mary's College,Notre Dame,IN,46556,41.707274,-86.256947,282319087,330806222,48487135
Saint Meinrad School of Theology,St. Meinrad,IN,47577,38.165546,-86.810388,58774831,48795945,-9978886
Taylor University,Upland,IN,46989-1001,40.456246,-85.497034,122743805,117969612,-4774193
Trine University,Angola,IN,46703-1764,41.632502,-85.008009,29190509,31533686,2343177
Valparaiso University,Valparaiso,IN,46383,41.462239,-87.040172,350627000,326748000,-23879000
Vincennes University,Vincennes,IN,47591,38.686318,-87.523407,70920576,63275636,-7644940
Wabash College,Crawfordsville,IN,47933-0352,40.037588,-86.906,419907279,385199753,-34707526
Allen College,Waterloo,IA,50703-1999,42.530084,-92.340148,9135042,9850563,715521
Briar Cliff University,Sioux City,IA,51104,42.526443,-96.428444,20565457,21130677,565220
Buena Vista University,Storm Lake,IA,50588,42.642255,-95.208529,162180950,150992944,-11188006
Central College,Pella,IA,50219,41.401539,-92.922199,99746202,97697890,-2048312
Clarke University,Dubuque,IA,52001-3198,42.509475,-90.690487,33527237,31325938,-2201299
Coe College,Cedar Rapids,IA,52402-5092,41.988263,-91.658192,107606904,103235111,-4371793
Cornell College,Mount Vernon,IA,52314-1098,41.924554,-91.423741,93803619,82014619,-11789000
Des Moines Area Community College,Ankeny,IA,50023-3993,41.707348,-93.611597,6540413,6661025,120612
Divine Word College,Epworth,IA,52045,42.441721,-90.934578,36403959,34250702,-2153257
Dordt University,Sioux Center,IA,51250-1606,43.082527,-96.166562,67719593,59142707,-8576886
Drake University,Des Moines,IA,50311-4505,41.60129,-93.652163,279782246,245420135,-34362111
University of Dubuque,Dubuque,IA,52001,42.49726,-90.693428,238864151,229372702,-9491449
Emmaus Bible College,Dubuque,IA,52001-3096,42.508307,-90.706011,1684953,1533465,-151488
Faith Baptist Bible College and Theological Seminary,Ankeny,IA,50023-2152,41.737082,-93.624422,5355553,4292585,-1062968
Graceland University-Lamoni,Lamoni,IA,50140,40.615966,-93.924893,54744304,58079158,3334854
Grand View University,Des Moines,IA,50316,41.620039,-93.600954,32963416,32818661,-144755
Grinnell College,Grinnell,IA,50112-1690,41.747952,-92.722094,2931550000,2484419000,-447131000
Hawkeye Community College,Waterloo,IA,50701,42.430003,-92.330633,4236944,3929090,-307854
Indian Hills Community College,Ottumwa,IA,52501,41.045105,-92.394736,3181136,3185761,4625
Iowa Central Community College,Fort Dodge,IA,50501,42.490067,-94.20299,5789904,6192856,402952
Iowa Lakes Community College,Estherville,IA,51334-2295,43.401376,-94.835661,8357483,8220217,-137266
Iowa State University,Ames,IA,50011-2103,42.026212,-93.648504,1403260018,1407463791,4203773
Iowa Wesleyan University,Mount Pleasant,IA,52641,40.973791,-91.552459,18321843,18993810,671967
Iowa Western Community College,Council Bluffs,IA,51503-1057,41.272168,-95.797975,22523851,19581104,-2942747
University of Iowa,Iowa City,IA,52242-1316,41.661935,-91.536425,3112825000,3053761000,-59064000
Kirkwood Community College,Cedar Rapids,IA,52406-2068,41.911268,-91.651172,42727217,37633298,-5093919
Loras College,Dubuque,IA,52004-0178,42.503908,-90.679023,55281637,53469186,-1812451
Luther College,Decorah,IA,52101-1045,43.312304,-91.802809,203973013,195931642,-8041371
Maharishi International University,Fairfield,IA,52557,41.017781,-91.967306,11507000,11627000,120000
Mercy College of Health Sciences,Des Moines,IA,50309-1239,41.594559,-93.626238,10010108,9804093,-206015
Morningside University,Sioux City,IA,51106-1751,42.473891,-96.359464,57259474,59589258,2329784
Mount Mercy University,Cedar Rapids,IA,52402-4797,42.001931,-91.650991,36315412,34358994,-1956418
North Iowa Area Community College,Mason City,IA,50401,43.157169,-93.13126,38482001,35326591,-3155410
University of Northern Iowa,Cedar Falls,IA,50614-0005,42.514923,-92.459703,176366296,167662993,-8703303
Northwestern College,Orange City,IA,51041,42.999007,-96.058772,75165165,63190062,-11975103
Northeast Iowa Community College,Calmar,IA,52132-0400,43.17523,-91.867105,3222671,3969425,746754
Northwest Iowa Community College,Sheldon,IA,51201,43.184701,-95.880639,5171821,4858269,-313552
Des Moines University-Osteopathic Medical Center,Des Moines,IA,50312,41.583325,-93.661686,181743960,159296244,-22447716
Palmer College of Chiropractic,Davenport,IA,52803-5287,41.529021,-90.574607,75552195,65726584,-9825611
Saint Ambrose University,Davenport,IA,52803-2898,41.54065,-90.579854,211916395,194047309,-17869086
St Luke's College,Sioux City,IA,51104-0263,42.520081,-96.404724,1213010,1249010,36000
Simpson College,Indianola,IA,50125,41.365503,-93.563471,105332071,95247154,-10084917
Southeastern Community College,West Burlington,IA,52655-0180,40.814496,-91.171881,8460264,7198858,-1261406
Southwestern Community College,Creston,IA,50801,41.073437,-94.380906,2691964,2766612,74648
Upper Iowa University,Fayette,IA,52142-1857,42.838283,-91.799543,22682522,19769502,-2913020
Wartburg College,Waverly,IA,50677-0903,42.7277,-92.483387,99150403,94173822,-4976581
Wartburg Theological Seminary,Dubuque,IA,52003-7769,42.485761,-90.691225,37612251,32866440,-4745811
Western Iowa Tech Community College,Sioux City,IA,51102-5199,42.482953,-96.348874,3181472,3275205,93733
William Penn University,Oskaloosa,IA,52577,41.310111,-92.647095,7435146,7403742,-31404
Allen County Community College,Iola,KS,66749,37.938038,-95.396377,8187476,6973949,-1213527
Baker University,Baldwin City,KS,66006-0065,38.778712,-95.187346,54288205,49600633,-4687572
Barton County Community College,Great Bend,KS,67530,38.403529,-98.731648,11419340,10223559,-1195781
Benedictine College,Atchison,KS,66002-1499,39.573079,-95.113858,44917496,41986243,-2931253
Bethany College,Lindsborg,KS,67456-1897,38.580598,-97.67367,9864730,11395817,1531087
Bethel College-North Newton,North Newton,KS,67117-1716,38.075169,-97.343256,31624566,27577842,-4046724
Butler Community College,El Dorado,KS,67042-3280,37.806699,-96.882987,11270748,12605601,1334853
Central Christian College of Kansas,McPherson,KS,67460-5740,38.357978,-97.668597,4922359,5215433,293074
Cloud County Community College,Concordia,KS,66901-1002,39.554199,-97.664147,12381598,10557247,-1824351
Coffeyville Community College,Coffeyville,KS,67337-5064,37.033814,-95.621374,11979259,12495297,516038
Colby Community College,Colby,KS,67701,39.377601,-101.052744,7903807,7415607,-488200
Dodge City Community College,Dodge City,KS,67801-2399,37.776891,-100.037481,3058038,2625477,-432561
Donnelly College,Kansas City,KS,66102,39.112346,-94.649827,8515527,7439989,-1075538
Emporia State University,Emporia,KS,66801-5415,38.414784,-96.179021,100787819,97388972,-3398847
Flint Hills Technical College,Emporia,KS,66801-5957,38.41888,-96.224141,4885063,4160425,-724638
Fort Hays State University,Hays,KS,67601-4099,38.872156,-99.342503,145486489,137188977,-8297512
Barclay College,Haviland,KS,67059-0288,37.62012,-99.105351,7048498,5986142,-1062356
Friends University,Wichita,KS,67213,37.678459,-97.367048,62611738,58722366,-3889372
Fort Scott Community College,Fort Scott,KS,66701,37.816206,-94.715334,8292131,6735194,-1556937
Garden City Community College,Garden City,KS,67846-6333,37.970514,-100.84916,7760892,6923250,-837642
Hesston College,Hesston,KS,67062-2093,38.134558,-97.433883,17292006,15556696,-1735310
Highland Community College,Highland,KS,66035-4165,39.859987,-95.271539,6023223,5402163,-621060
Hutchinson Community College,Hutchinson,KS,67501,38.068035,-97.92135,13244616,10805916,-2438700
Johnson County Community College,Overland Park,KS,66210-1299,38.924125,-94.727798,31298093,27436687,-3861406
Kansas City Kansas Community College,Kansas City,KS,66112,39.121911,-94.748061,2674594,3006690,332096
University of Kansas,Lawrence,KS,66045,38.958549,-95.247567,2398680411,2303429732,-95250679
Newman University,Wichita,KS,67213-2097,37.672643,-97.37768,29925050,25432124,-4492926
Kansas State University,Manhattan,KS,66506,39.188648,-96.581077,860561816,912833425,52271609
Kansas Wesleyan University,Salina,KS,67401-6146,38.813795,-97.607973,41700624,38075690,-3624934
Labette Community College,Parsons,KS,67357-4201,37.339062,-95.255368,759170,805066,45896
Manhattan Area Technical College,Manhattan,KS,66503-2499,39.197774,-96.615672,247159,517753,270594
Manhattan Christian College,Manhattan,KS,66502-4801,39.184806,-96.579383,4794914,4406765,-388149
McPherson College,McPherson,KS,67460-1402,38.371422,-97.642996,53919730,53371147,-548583
MidAmerica Nazarene University,Olathe,KS,66062-1899,38.875615,-94.781635,16299264,14056637,-2242627
Neosho County Community College,Chanute,KS,66720,37.670672,-95.464976,4158792,3807150,-351642
North Central Kansas Technical College,Beloit,KS,67420,39.482419,-98.110826,290847,284111,-6736
Northwest Kansas Technical College,Goodland,KS,67735,39.346424,-101.70022,944917,905748,-39169
Ottawa University-Ottawa,Ottawa,KS,66067-3399,38.603173,-95.264187,3693356,3823802,130446
Ottawa University-Kansas City,Overland Park,KS,66211,38.932055,-94.635461,1157791,1198682,40891
Pittsburg State University,Pittsburg,KS,66762,37.392071,-94.702473,113258933,103278157,-9980776
Pratt Community College,Pratt,KS,67124,37.654451,-98.714538,6231231,6483374,252143
University of Saint Mary,Leavenworth,KS,66048-5082,39.279396,-94.906743,20290406,17969961,-2320445
Salina Area Technical College,Salina,KS,67401,38.793582,-97.636892,1145001,498560,-646441
Seward County Community College,Liberal,KS,67901,37.059807,-100.917695,5988376,6005365,16989
Southwestern College,Winfield,KS,67156-2499,37.248608,-96.975405,27433651,26656485,-777166
Sterling College,Sterling,KS,67579,38.219937,-98.208644,15320526,13468512,-1852014
Tabor College,Hillsboro,KS,67063-1799,38.34858,-97.199773,14990248,14712200,-278048
Washburn University,Topeka,KS,66621-0001,39.033778,-95.702222,210985121,190594225,-20390896
Wichita State University-Campus of Applied Sciences and Technology,Wichita,KS,67226,37.75764,-97.224151,1598593,1534296,-64297
Wichita State University,Wichita,KS,67260-0124,37.718882,-97.292361,336760732,320097999,-16662733
Alice Lloyd College,Pippa Passes,KY,41844,37.335087,-82.875068,59864522,57103324,-2761198
Asbury University,Wilmore,KY,40390-1198,37.862029,-84.662606,69641629,68574686,-1066943
Asbury Theological Seminary,Wilmore,KY,40390-1199,37.861561,-84.660127,190772803,200734801,9961998
Bellarmine University,Louisville,KY,40205-0671,38.219279,-85.704997,80147900,71030451,-9117449
Berea College,Berea,KY,40404-2182,37.57202,-84.292893,1575414600,1418870700,-156543900
Brescia University,Owensboro,KY,42301-3023,37.769041,-87.111639,17399771,15810956,-1588815
Campbellsville University,Campbellsville,KY,42718-2799,37.343342,-85.348943,34846928,35720002,873074
Centre College,Danville,KY,40422-1394,37.645709,-84.779392,420214180,408796421,-11417759
Clear Creek Baptist Bible College,Pineville,KY,40977-9752,36.725236,-83.727702,25000673,21047310,-3953363
University of the Cumberlands,Williamsburg,KY,40769,36.737048,-84.161646,120888737,164485925,43597188
Eastern Kentucky University,Richmond,KY,40475-3102,37.740845,-84.300796,88786959,78572624,-10214335
Frontier Nursing University,Versailles,KY,40383,38.051018,-84.692791,25258268,22263299,-2994969
Georgetown College,Georgetown,KY,40324-1696,38.207615,-84.553767,44423702,37421335,-7002367
Kentucky Mountain Bible College,Jackson,KY,41339,37.603443,-83.438765,5115872,5492671,376799
Kentucky State University,Frankfort,KY,40601-2355,38.201427,-84.855402,21945544,19063354,-2882190
Kentucky Wesleyan College,Owensboro,KY,42301,37.744489,-87.119658,42146419,38714749,-3431670
University of Kentucky,Lexington,KY,40506-0032,38.038911,-84.504747,1863781454,1754167989,-109613465
Kentucky Christian University,Grayson,KY,41143-1199,38.338805,-82.945561,6825733,7041656,215923
Lexington Theological Seminary,Lexington,KY,40503,37.996332,-84.526079,47994078,42483710,-5510368
Lindsey Wilson College,Columbia,KY,42728-1223,37.101502,-85.299997,37179682,32761864,-4417818
University of Louisville,Louisville,KY,40292-0001,38.216862,-85.760412,958704000,883606000,-75098000
Louisville Presbyterian Theological Seminary,Louisville,KY,40205-1798,38.237056,-85.686411,103900288,96388106,-7512182
Midway University,Midway,KY,40347-1120,38.146126,-84.678142,36375546,28926670,-7448876
Morehead State University,Morehead,KY,40351,38.186768,-83.434021,58002224,56141302,-1860922
Murray State University,Murray,KY,42071-3318,36.612419,-88.323629,119044009,106596412,-12447597
Northern Kentucky University,Highland Heights,KY,41099,39.029714,-84.463483,129970000,119757000,-10213000
University of Pikeville,Pikeville,KY,41501,37.479232,-82.521063,29173185,26197115,-2976070
The Southern Baptist Theological Seminary,Louisville,KY,40280-0001,38.248216,-85.687649,108032667,94824550,-13208117
Spalding University,Louisville,KY,40203-2188,38.242407,-85.757725,26379566,22595678,-3783888
Thomas More University,Crestview Hills,KY,41017-3495,39.022963,-84.568923,36775629,34267985,-2507644
Transylvania University,Lexington,KY,40508-1797,38.052983,-84.493202,240818154,220712248,-20105906
Union College,Barbourville,KY,40906-1499,36.870875,-83.888477,30900100,24767823,-6132277
Western Kentucky University,Bowling Green,KY,42101-1000,36.985035,-86.456828,17668486,19854237,2185751
Central Louisiana Technical Community College,Alexandria,LA,71301,31.310461,-92.446693,290136,290536,400
Bossier Parish Community College,Bossier City,LA,71111-6922,32.539551,-93.646881,1220000,1430000,210000
Centenary College of Louisiana,Shreveport,LA,71104,32.483335,-93.730834,149355410,123340027,-26015383
Delgado Community College,New Orleans,LA,70119,29.985149,-90.103962,4374795,3705883,-668912
Dillard University,New Orleans,LA,70122,29.996587,-90.06464,108887649,92755906,-16131743
Nunez Community College,Chalmette,LA,70043,29.95419,-89.95888,1450495,1429173,-21322
Grambling State University,Grambling,LA,71245,32.523797,-92.713245,8081377,8181377,100000
Louisiana State University Health Sciences Center-New Orleans,New Orleans,LA,70112-2223,29.957272,-90.083145,47143042,38982019,-8161023
Louisiana State University-Alexandria,Alexandria,LA,71302-9121,31.178616,-92.414409,22581628,20073359,-2508269
Louisiana State University and Agricultural & Mechanical College,Baton Rouge,LA,70803-2750,30.414986,-91.178921,702094512,632722297,-69372215
Louisiana State University-Eunice,Eunice,LA,70535,30.473292,-92.434523,3151064,2982985,-168079
Louisiana State University-Shreveport,Shreveport,LA,71115-2399,32.428465,-93.70561,28887195,24591153,-4296042
Louisiana Christian University,Pineville,LA,71359,31.324528,-92.425973,45660619,41881314,-3779305
Louisiana Tech University,Ruston,LA,71272,32.528297,-92.649963,95704850,86292776,-9412074
Loyola University New Orleans,New Orleans,LA,70118-6143,29.936141,-90.120417,262257784,236132884,-26124900
McNeese State University,Lake Charles,LA,70605,30.178187,-93.217222,25191314,18915693,-6275621
University of New Orleans,New Orleans,LA,70148,30.027704,-90.067142,25820739,23378960,-2441779
New Orleans Baptist Theological Seminary,New Orleans,LA,70126,30.004336,-90.043439,72067692,74082585,2014893
Nicholls State University,Thibodaux,LA,70310,29.794486,-90.801571,19806207,16807980,-2998227
University of Louisiana at Monroe,Monroe,LA,71209-0000,32.527748,-92.07374,41746794,37328263,-4418531
Northwestern State University of Louisiana,Natchitoches,LA,71497-0002,31.750666,-93.097797,20803510,16816137,-3987373
University of Holy Cross,New Orleans,LA,70131-7399,29.912003,-89.99445,29818394,22693408,-7124986
Franciscan Missionaries of Our Lady University,Baton Rouge,LA,70808,30.401379,-91.110587,12263696,11112553,-1151143
Saint Joseph Seminary College,St. Benedict,LA,70457,30.526778,-90.113621,620660,547014,-73646
Fletcher Technical Community College,Schriever,LA,70395,29.690884,-90.811707,459105,538588,79483
SOWELA Technical Community College,Lake Charles,LA,70615,30.217331,-93.16252,1809572,1913239,103667
Southeastern Louisiana University,Hammond,LA,70402,30.514652,-90.468676,22583695,20049485,-2534210
Southern University and A & M College,Baton Rouge,LA,70813,30.524558,-91.190105,11997893,11051970,-945923
Southern University at New Orleans,New Orleans,LA,70126,30.026162,-90.044912,3156732,3137803,-18929
Southern University at Shreveport,Shreveport,LA,71107,32.545632,-93.834559,1513866,1370882,-142984
University of Louisiana at Lafayette,Lafayette,LA,70503,30.212191,-92.020165,171397760,154721046,-16676714
Northshore Technical Community College,Lacombe,LA,70445,30.379147,-89.899196,720000,820000,100000
Tulane University of Louisiana,New Orleans,LA,70118-5698,29.940069,-90.122144,1972827000,2001112000,28285000
Xavier University of Louisiana,New Orleans,LA,70125-1098,29.964162,-90.107307,190826626,164104719,-26721907
College of the Atlantic,Bar Harbor,ME,04609,44.395258,-68.221517,81831154,67786884,-14044270
Bates College,Lewiston,ME,04240,44.105299,-70.203333,466016288,418543930,-47472358
Bowdoin College,Brunswick,ME,04011,43.907134,-69.963942,2718438000,2472818000,-245620000
Maine College of Health Professions,Lewiston,ME,04240,44.100458,-70.21732,8253061,8174853,-78208
Central Maine Community College,Auburn,ME,04210-6498,44.134346,-70.235498,1430100,1382126,-47974
Colby College,Waterville,ME,04901-8840,44.564211,-69.66337,1257738000,1122451000,-135287000
Eastern Maine Community College,Bangor,ME,04401,44.826048,-68.74445,1776395,1704698,-71697
Kennebec Valley Community College,Fairfield,ME,04937-1367,44.594149,-69.61157,4334100,4023898,-310202
The Landing School,Arundel,ME,04046,43.380492,-70.503619,1236772,1030530,-206242
University of Maine at Augusta,Augusta,ME,04330-9410,44.337746,-69.796396,9335000,7895000,-1440000
University of Maine at Farmington,Farmington,ME,04938-9978,44.666911,-70.147121,18042000,15355000,-2687000
University of Maine at Fort Kent,Fort Kent,ME,04743-1292,47.250389,-68.589319,5149000,4697000,-452000
University of Maine,Orono,ME,04469,44.899257,-68.669332,448303000,456236000,7933000
Maine Maritime Academy,Castine,ME,04420-0001,44.389654,-68.804347,45893773,44837944,-1055829
University of Maine at Presque Isle,Presque Isle,ME,04769-2888,46.672285,-68.016343,1523000,1281000,-242000
University of New England,Biddeford,ME,04005-9599,43.458591,-70.38535,50079209,45068469,-5010740
Northern Maine Community College,Presque Isle,ME,04769-2016,46.694668,-68.034796,6035757,4610460,-1425297
Maine College of Art & Design,Portland,ME,04101-3494,43.655743,-70.261015,15412452,13869461,-1542991
Saint Joseph's College of Maine,Standish,ME,04084-5263,43.826314,-70.483373,18502833,15523555,-2979278
Southern Maine Community College,South Portland,ME,04106-1698,43.646649,-70.229182,2068863,1890324,-178539
University of Southern Maine,Portland,ME,04103,43.662863,-70.274247,51260000,42013000,-9247000
Thomas College,Waterville,ME,04901-5097,44.524909,-69.664734,20020781,18608816,-1411965
Unity College,New Gloucester,ME,04260,43.905745,-70.257277,18671070,15715242,-2955828
Washington County Community College,Calais,ME,04619,45.165537,-67.243306,655566,548829,-106737
Allegany College of Maryland,Cumberland,MD,21502-2596,39.652152,-78.730398,19136532,20352969,1216437
Anne Arundel Community College,Arnold,MD,21012-1895,39.049813,-76.512223,8258163,8485634,227471
Baltimore City Community College,Baltimore,MD,21215-7893,39.319978,-76.662878,1596473,1413142,-183331
University of Baltimore,Baltimore,MD,21201-5720,39.305834,-76.616591,70214076,68443299,-1770777
Bowie State University,Bowie,MD,20715-9465,39.018185,-76.759721,39100721,41247594,2146873
Capitol Technology University,Laurel,MD,20708,39.046673,-76.850231,5848499,4978506,-869993
Cecil College,North East,MD,21901-1900,39.642225,-75.955949,8784717,8231156,-553561
College of Southern Maryland,La Plata,MD,20646-0910,38.55895,-77.009245,10757828,9402517,-1355311
Chesapeake College,Wye Mills,MD,21679-0008,38.952193,-76.083668,5795231,4309220,-1486011
Washington Adventist University,Takoma Park,MD,20912,38.986349,-77.000608,2851779,2888883,37104
Coppin State University,Baltimore,MD,21216-3698,39.311258,-76.658687,15052131,15195191,143060
Frederick Community College,Frederick,MD,21702-2964,39.452241,-77.417849,14312172,14262402,-49770
Frostburg State University,Frostburg,MD,21532-1099,39.650918,-78.934293,36399168,38315197,1916029
Garrett College,McHenry,MD,21541,39.560493,-79.342923,8707176,7682224,-1024952
Goucher College,Baltimore,MD,21204-2794,39.410175,-76.594843,259341000,243311000,-16030000
Hagerstown Community College,Hagerstown,MD,21742-6514,39.631009,-77.667379,15341652,17435673,2094021
Harford Community College,Bel Air,MD,21015-1698,39.56131,-76.282845,12728391,13808616,1080225
Hood College,Frederick,MD,21701,39.420631,-77.419049,134228547,127676673,-6551874
Howard Community College,Columbia,MD,21044-3197,39.213636,-76.877964,14346111,11916667,-2429444
Johns Hopkins University,Baltimore,MD,21218-2688,39.328977,-76.621595,9315279000,8244472000,-1070807000
Loyola University Maryland,Baltimore,MD,21210-2699,39.346358,-76.621872,307797711,301817062,-5980649
University of Maryland Global Campus,Adelphi,MD,20783-8010,38.912706,-76.847584,55158945,54472455,-686490
University of Maryland Baltimore,Baltimore,MD,21201-1627,39.286864,-76.623983,456327486,466849036,10521550
University of Maryland-Baltimore County,Baltimore,MD,21250,39.256686,-76.711607,137355063,146753148,9398085
University of Maryland-College Park,College Park,MD,20742,38.988178,-76.944721,943172167,965446224,22274057
Maryland Institute College of Art,Baltimore,MD,21217-4134,39.308792,-76.621033,117755152,109355771,-8399381
University of Maryland Eastern Shore,Princess Anne,MD,21853-1299,38.207386,-75.686852,58520053,65229324,6709271
Montgomery College,Rockville,MD,20850,39.098656,-77.15929,38592668,32518029,-6074639
Morgan State University,Baltimore,MD,21251-0001,39.344161,-76.585565,98712875,91221445,-7491430
Mount St. Mary's University,Emmitsburg,MD,21727-7799,39.681705,-77.351887,64126845,59202444,-4924401
Notre Dame of Maryland University,Baltimore,MD,21210-2476,39.350612,-76.619739,51709356,49321528,-2387828
Prince George's Community College,Largo,MD,20774-2199,38.888689,-76.824623,6451847,5695247,-756600
Salisbury University,Salisbury,MD,21801-6862,38.34648,-75.604815,100837695,93445415,-7392280
St. Mary's College of Maryland,St. Mary's City,MD,20686,38.188047,-76.430994,44868594,40034496,-4834098
St. John's College,Annapolis,MD,21401,38.981598,-76.491359,172683848,149227172,-23456676
Towson University,Towson,MD,21252-0001,39.393622,-76.611164,113271223,95700858,-17570365
Maryland University of Integrative Health,Laurel,MD,20723,39.165872,-76.888025,646752,58561,-588191
United States Naval Academy,Annapolis,MD,21402-1300,38.980507,-76.481692,382923157,341837755,-41085402
Stevenson University,Owings Mills,MD,21117,39.426413,-76.775809,126472667,103541347,-22931320
Washington College,Chestertown,MD,21620-1438,39.217329,-76.06878,299835141,267150417,-32684724
McDaniel College,Westminster,MD,21157,39.584231,-77.001992,170613000,143062000,-27551000
Wor-Wic Community College,Salisbury,MD,21804-7131,38.373723,-75.499659,26129487,25200584,-928903
American International College,Springfield,MA,01109,42.112346,-72.558338,25570046,28023986,2453940
Amherst College,Amherst,MA,01002-5000,42.372459,-72.518493,3775153114,3321852777,-453300337
Anna Maria College,Paxton,MA,01612-1198,42.330542,-71.91896,7190015,5821338,-1368677
Assumption University,Worcester,MA,01609-1296,42.294226,-71.828991,101791191,108227034,6435843
Babson College,Wellesley,MA,02457-0310,42.297017,-71.264057,700733790,663315949,-37417841
Bay Path University,Longmeadow,MA,01106,42.055088,-72.583382,73535409,64645290,-8890119
Bentley University,Waltham,MA,02452-4705,42.385995,-71.222839,359232000,333061000,-26171000
Berklee College of Music,Boston,MA,02215,42.346646,-71.089405,446633116,406592352,-40040764
Berkshire Community College,Pittsfield,MA,01201-5786,42.45975,-73.314704,10943908,10272397,-671511
Boston Architectural College,Boston,MA,02115-2703,42.348467,-71.085786,14341138,12343781,-1997357
Boston College,Chestnut Hill,MA,02467,42.336213,-71.169242,3775566151,3715412313,-60153838
Boston University,Boston,MA,02215,42.351118,-71.107942,3392513000,2973352000,-419161000
Brandeis University,Waltham,MA,02454-9110,42.365727,-71.260155,1286001704,1205167500,-80834204
Bridgewater State University,Bridgewater,MA,02325,41.98749,-70.974553,65117443,60993492,-4123951
Bristol Community College,Fall River,MA,02720-7395,41.721994,-71.119133,7079879,7624033,544154
Bunker Hill Community College,Boston,MA,02129-2925,42.374806,-71.069263,4351359,4784490,433131
Cambridge College,Boston,MA,02129,42.381091,-71.072646,58308304,41731928,-16576376
Cape Cod Community College,West Barnstable,MA,02668-1599,41.691911,-70.337334,7400173,7401862,1689
Laboure College of Healthcare,Milton,MA,02186,42.260866,-71.058279,9540947,7424595,-2116352
Clark University,Worcester,MA,01610-1477,42.249987,-71.823356,506185000,487169000,-19016000
Conway School of Landscape Design,Northampton,MA,01060,42.313857,-72.64875,45347,148240,102893
Curry College,Milton,MA,02186-2395,42.238061,-71.116539,104122359,94144590,-9977769
Dean College,Franklin,MA,02038-1941,42.085634,-71.397813,62005198,64555302,2550104
Eastern Nazarene College,Quincy,MA,02170-2999,42.271228,-71.011079,19431518,19100262,-331256
Emerson College,Boston,MA,02116-4624,42.352202,-71.065384,259625990,224902734,-34723256
Emmanuel College,Boston,MA,02115,42.340602,-71.103634,187652794,160956937,-26695857
Endicott College,Beverly,MA,01915,42.553296,-70.840847,129025139,119158126,-9867013
Fitchburg State University,Fitchburg,MA,01420-2697,42.588298,-71.789666,21282453,18856592,-2425861
Framingham State University,Framingham,MA,01701-9101,42.297116,-71.437565,57660378,54656953,-3003425
Benjamin Franklin Cummings Institute of Technology,Boston,MA,02116,42.346023,-71.070231,439923,950010,510087
Gordon College,Wenham,MA,01984,42.590567,-70.82151,98936710,87072779,-11863931
Gordon-Conwell Theological Seminary,South Hamilton,MA,01982,42.613475,-70.846387,71617440,63082168,-8535272
Hampshire College,Amherst,MA,01002-5001,42.325852,-72.531469,55577725,39686592,-15891133
Harvard University,Cambridge,MA,02138,42.374471,-71.118313,53165753000,50877680000,-2288073000
Hebrew College,Newton Centre,MA,02459-2237,42.325677,-71.189226,3523849,3174058,-349791
Hellenic College-Holy Cross Greek Orthodox School of Theology,Brookline,MA,02445-7415,42.317018,-71.129418,30797564,43001396,12203832
College of the Holy Cross,Worcester,MA,01610-2395,42.23752,-71.808214,1043289368,992626923,-50662445
Holyoke Community College,Holyoke,MA,01040,42.194781,-72.651252,7382956,7552511,169555
Lasell University,Newton,MA,02466,42.342148,-71.24347,48951389,46128982,-2822407
Lesley University,Cambridge,MA,02138-2790,42.38012,-71.117303,226529066,186630620,-39898446
Longy School of Music of Bard College,Cambridge,MA,02138,42.378657,-71.123479,9537598,8262655,-1274943
University of Massachusetts-Lowell,Lowell,MA,01854,42.652864,-71.326809,171356000,160107000,-11249000
University of Massachusetts-Amherst,Amherst,MA,01003,42.385999,-72.526728,494397003,442469956,-51927047
University of Massachusetts-Boston,Boston,MA,02125-3393,42.312881,-71.036865,124573000,126413000,1840000
Massachusetts Bay Community College,Wellesley Hills,MA,02481-5399,42.31212,-71.263458,6743275,5809702,-933573
MCPHS University,Boston,MA,02115-5896,42.336825,-71.101244,1660129792,1512276636,-147853156
Massachusetts College of Art and Design,Boston,MA,02115-5882,42.336862,-71.099275,18325655,16667670,-1657985
Massachusetts Institute of Technology,Cambridge,MA,02139-4307,42.359243,-71.093226,27394039000,24600809000,-2793230000
Massachusetts Maritime Academy,Buzzards Bay,MA,02532-1803,41.739072,-70.624084,39952245,40570073,617828
University of Massachusetts Chan Medical School,Worcester,MA,01655,42.278002,-71.762144,490091923,443342359,-46749564
William James College,Newton,MA,02459,42.294995,-71.203256,1165267,990297,-174970
Massasoit Community College,Brockton,MA,02302-3996,42.07507,-70.989799,2591140,1947107,-644033
Merrimack College,North Andover,MA,01845,42.668344,-71.124216,74119235,65709445,-8409790
MGH Institute of Health Professions,Boston,MA,02129-4557,42.375018,-71.054002,58133000,47462000,-10671000
Montserrat College of Art,Beverly,MA,01915-4508,42.550212,-70.876131,3079804,2858176,-221628
Mount Holyoke College,South Hadley,MA,01075-1489,42.25489,-72.573916,1068049889,1002548528,-65501361
Mount Wachusett Community College,Gardner,MA,01440-1000,42.593142,-71.984148,5919246,4126757,-1792489
The New England Conservatory of Music,Boston,MA,02115-5018,42.340946,-71.08629,154798782,138423418,-16375364
New England College of Optometry,Boston,MA,02115,42.351853,-71.086829,12466891,10679228,-1787663
New England Law-Boston,Boston,MA,02116,42.350833,-71.0665,91340148,77529583,-13810565
Nichols College,Dudley,MA,01571-5000,42.044033,-71.930283,32100561,27334716,-4765845
Massachusetts College of Liberal Arts,North Adams,MA,01247-4100,42.691361,-73.102817,18832853,16824632,-2008221
North Shore Community College,Danvers,MA,01923-0840,42.590103,-70.968044,11448944,9736182,-1712762
Northeastern University,Boston,MA,02115-5005,42.339992,-71.088782,1365215950,1432236358,67020408
Northern Essex Community College,Haverhill,MA,01830-2399,42.796634,-71.04904,7817605,8065373,247768
College of Our Lady of the Elms,Chicopee,MA,01013,42.141781,-72.60154,17900630,17361311,-539319
Pope St John XXIII National Seminary,Weston,MA,02493-2699,42.339408,-71.311059,5891218,4642372,-1248846
Quinsigamond Community College,Worcester,MA,01606-2092,42.31379,-71.79503,5099492,4377031,-722461
Regis College,Weston,MA,02493-1571,42.351291,-71.310561,48382350,39605519,-8776831
Roxbury Community College,Roxbury Crossing,MA,02120-3400,42.329249,-71.09549,2896510,2411813,-484697
Saint John's Seminary,Brighton,MA,02135-3846,42.344146,-71.161998,42903405,34854047,-8049358
Salem State University,Salem,MA,01970,42.503575,-70.890234,1268006,1131228,-136778
Simmons University,Boston,MA,02115-5898,42.3393,-71.099967,244268268,212281646,-31986622
Bard College at Simon's Rock,Great Barrington,MA,01230-9702,42.208803,-73.379201,109345,2175187,2065842
Smith College,Northampton,MA,01063,42.318111,-72.638097,2559082623,2467994699,-91087924
Springfield College,Springfield,MA,01109-3797,42.1022,-72.556647,106011115,91832544,-14178571
Springfield Technical Community College,Springfield,MA,01105-1296,42.108827,-72.578514,1495217,1379439,-115778
University of Massachusetts-Dartmouth,North Dartmouth,MA,02747-2300,41.62869,-71.004552,103604053,90217112,-13386941
Stonehill College,Easton,MA,02357-6110,42.05905,-71.080632,307883077,295106757,-12776320
Suffolk University,Boston,MA,02108-3901,42.357945,-71.060917,305695389,253973639,-51721750
Tufts University,Medford,MA,02155-5555,42.40855,-71.118293,2646506000,2350755000,-295751000
Wellesley College,Wellesley,MA,02481-8203,42.291554,-71.306605,3236785000,2846865000,-389920000
Wentworth Institute of Technology,Boston,MA,02115,42.336632,-71.094983,149799889,143897385,-5902504
Western New England University,Springfield,MA,01119-2684,42.115017,-72.520466,71333272,59527823,-11805449
Westfield State University,Westfield,MA,01086-1630,42.132698,-72.796503,13213677,11843315,-1370362
Wheaton College (Massachusetts),Norton,MA,02766-2322,41.966637,-71.183979,266877707,241464278,-25413429
Williams College,Williamstown,MA,01267,42.712725,-73.203132,3911574095,3341413367,-570160728
Worcester Polytechnic Institute,Worcester,MA,01609-2280,42.274853,-71.808339,634544000,589684000,-44860000
Worcester State University,Worcester,MA,01602-2597,42.267526,-71.844018,20177209,21148406,971197
Adrian College,Adrian,MI,49221-2575,41.898591,-84.061481,46226719,41060715,-5166004
Albion College,Albion,MI,49224,42.245049,-84.745639,199245697,176126977,-23118720
Alma College,Alma,MI,48801-1599,43.38004,-84.672053,150400534,128521753,-21878781
Alpena Community College,Alpena,MI,49707,45.081647,-83.445069,9842637,7385053,-2457584
Andrews University,Berrien Springs,MI,49104,41.963859,-86.355815,70146819,65553163,-4593656
Aquinas College,Grand Rapids,MI,49506-1801,42.96019,-85.628785,48084905,41318389,-6766516
Baker College,Owosso,MI,48867,42.984804,-84.172404,389980183,348217506,-41762677
Bay de Noc Community College,Escanaba,MI,49829-2511,45.772586,-87.085228,12639329,11101145,-1538184
Calvin University,Grand Rapids,MI,49546,42.929916,-85.587548,242913000,248568000,5655000
Calvin Theological Seminary,Grand Rapids,MI,49546-4387,42.927951,-85.586439,55449002,55443300,-5702
Michigan School of Psychology,Farmington Hills,MI,48334-4512,42.491427,-83.359575,4440,4440,0
Central Michigan University,Mount Pleasant,MI,48859,43.591203,-84.77525,246144980,230600367,-15544613
Mott Community College,Flint,MI,48503-2089,43.019941,-83.67243,53828746,44736581,-9092165
Cleary University,Howell,MI,48843,42.586638,-83.879987,1398800,1304291,-94509
Concordia University Ann Arbor,Ann Arbor,MI,48105,42.273157,-83.68268,24311411,23176850,-1134561
Cranbrook Academy of Art,Bloomfield Hills,MI,48304,42.568904,-83.250681,65080457,64199297,-881160
College for Creative Studies,Detroit,MI,48202,42.361839,-83.062352,105991839,87761448,-18230391
Davenport University,Grand Rapids,MI,49512-9396,42.850013,-85.533519,33248404,29404298,-3844106
Delta College,University Center,MI,48710,43.559491,-83.985943,33580552,28274644,-5305908
University of Detroit Mercy,Detroit,MI,48221-3038,42.414222,-83.139158,93964422,83263247,-10701175
Eastern Michigan University,Ypsilanti,MI,48197,42.251675,-83.627443,94993584,92105005,-2888579
Ferris State University,Big Rapids,MI,49307-2251,43.687724,-85.481925,116055893,113766890,-2289003
Kettering University,Flint,MI,48504-6214,43.012468,-83.71282,110952886,102189065,-8763821
Gogebic Community College,Ironwood,MI,49938,46.471893,-90.165592,5159707,4720129,-439578
Cornerstone University,Grand Rapids,MI,49525-5897,42.979966,-85.595328,15675882,16402621,726739
Grand Rapids Community College,Grand Rapids,MI,49503-3295,42.967076,-85.665625,19018170,14938751,-4079419
Grand Valley State University,Allendale,MI,49401-9403,42.963001,-85.889826,174958793,169199257,-5759536
Great Lakes Christian College,Lansing,MI,48917-1299,42.754249,-84.638714,1051628,1093074,41446
Hillsdale College,Hillsdale,MI,49242,41.933682,-84.633195,948699164,924423912,-24275252
Hope College,Holland,MI,49423-9000,42.787247,-86.100971,307167000,282642000,-24525000
Jackson College,Jackson,MI,49201-8399,42.16483,-84.403942,11339723,12732519,1392796
Kalamazoo College,Kalamazoo,MI,49006-3295,42.290789,-85.601857,311232478,261730830,-49501648
Kalamazoo Valley Community College,Kalamazoo,MI,49003-4070,42.225948,-85.682144,15869086,13541551,-2327535
Kellogg Community College,Battle Creek,MI,49017-3397,42.335638,-85.177329,11453989,11785630,331641
Kirtland Community College,Grayling,MI,49738,44.601785,-84.706254,2000000,0,-2000000
Lake Michigan College,Benton Harbor,MI,49022-1899,42.097276,-86.393445,14484615,12147966,-2336649
Lake Superior State University,Sault Ste Marie,MI,49783,46.492849,-84.365573,37600988,31641300,-5959688
Lansing Community College,Lansing,MI,48933,42.738435,-84.55157,17298264,15820305,-1477959
Lawrence Technological University,Southfield,MI,48075-1058,42.474072,-83.25003,57917708,47684469,-10233239
Macomb Community College,Warren,MI,48088-3896,42.50599,-82.972377,32269465,26548871,-5720594
Madonna University,Livonia,MI,48150-1176,42.384323,-83.404722,52276926,44542478,-7734448
Rochester University,Rochester Hills,MI,48307,42.667521,-83.144959,4400132,4680215,280083
University of Michigan-Ann Arbor,Ann Arbor,MI,48109,42.275921,-83.742769,16795776000,17095088000,299312000
Michigan State University,East Lansing,MI,48824-1046,42.73212,-84.476111,4429672543,4375011965,-54660578
Michigan Technological University,Houghton,MI,49931-1295,47.11866,-88.548092,151519725,147630662,-3889063
University of Michigan-Dearborn,Dearborn,MI,48128-1491,42.317287,-83.231417,77387000,86785000,9398000
University of Michigan-Flint,Flint,MI,48502-1950,43.01875,-83.690276,149520000,165315000,15795000
Mid Michigan College,Harrison,MI,48625-9447,43.969586,-84.763715,2515851,2635794,119943
Monroe County Community College,Monroe,MI,48161-9746,41.91617,-83.470274,8464972,7379852,-1085120
Montcalm Community College,Sidney,MI,48885-9723,43.253191,-85.100181,26410802,22311132,-4099670
Muskegon Community College,Muskegon,MI,49442-1432,43.250329,-86.196384,1333584,1216917,-116667
North Central Michigan College,Petoskey,MI,49770,45.361727,-84.954183,2185203,2057142,-128061
Northern Michigan University,Marquette,MI,49855-5301,46.559751,-87.406568,20672511,17270347,-3402164
Northwestern Michigan College,Traverse City,MI,49686,44.765436,-85.585517,16409948,17525939,1115991
Northwood University,Midland,MI,48640-2398,43.628717,-84.27682,114342229,100230394,-14111835
Oakland Community College,Auburn Hills,MI,48326,42.595441,-83.244787,2476564,2657334,180770
Oakland University,Rochester Hills,MI,48309-4401,42.674573,-83.216418,147144540,124893354,-22251186
Olivet College,Olivet,MI,49076,42.442891,-84.923891,26274803,21930202,-4344601
Kuyper College,Grand Rapids,MI,49525-9781,43.02195,-85.592657,6650986,5142059,-1508927
Sacred Heart Major Seminary,Detroit,MI,48206-1799,42.375248,-83.111682,26731034,25093252,-1637782
Saginaw Valley State University,University Center,MI,48710,43.51176,-83.964273,110619274,96122134,-14497140
Schoolcraft Community College District,Livonia,MI,48152-2696,42.419279,-83.430958,13285189,11816076,-1469113
Siena Heights University,Adrian,MI,49221,41.905624,-84.018841,19488255,17219189,-2269066
St Clair County Community College,Port Huron,MI,48061-5015,42.979494,-82.428717,8949650,8141511,-808139
Southwestern Michigan College,Dowagiac,MI,49047-9793,41.965095,-86.082715,15566228,13771485,-1794743
Spring Arbor University,Spring Arbor,MI,49283-9799,42.206568,-84.556074,24904101,25774041,869940
Finlandia University,Hancock,MI,49930-1832,47.127868,-88.588756,5971713,5971714,1
Western Michigan University-Thomas M. Cooley Law School,Lansing,MI,48933,42.731,-84.554429,46005666,38962030,-7043636
Walsh College,Troy,MI,48083-5066,42.573888,-83.147197,13307456,11638919,-1668537
Washtenaw Community College,Ann Arbor,MI,48105-4800,42.26361,-83.66559,28418020,26349482,-2068538
